City_ID,City,Lat,Lng,Max Temp,Humidity,Cloudiness,Wind Speed,Country,Date
0,longyearbyen,78.2186,15.6401,-9.09,73,75,2.57,SJ,1734195792
1,bethel,41.3712,-73.414,-0.15,56,0,2.24,US,1734195988
2,ubinskoye,55.3068,79.6802,-9.02,90,59,4.49,RU,1734196040
3,port-aux-francais,-49.35,70.2167,5.44,81,60,4.35,TF,1734196041
4,tobelo,1.7284,128.0095,26.48,82,99,2.13,ID,1734196042
5,bontang,0.1333,117.5,26.2,87,100,4.62,ID,1734196043
6,grytviken,-54.2811,-36.5092,7.14,57,44,2.42,GS,1734196045
7,uturoa,-16.7333,-151.4333,24.22,90,100,10.18,PF,1734196046
8,yellowknife,62.456,-114.3525,-26.63,95,98,2.46,CA,1734196047
9,enewetak,11.3474,162.3373,27.83,77,38,9.28,MH,1734196048
10,taoudenni,22.6783,-3.9836,28.29,8,2,5.83,ML,1734196050
11,edinburgh of the seven seas,-37.0676,-12.3116,12.78,61,40,5.83,SH,1734196051
12,nar'yan-mar,67.6713,53.087,-20.71,89,94,2.91,RU,1734196052
13,ushuaia,-54.8,-68.3,11.81,50,40,7.72,AR,1734196053
14,blackmans bay,-43.0167,147.3167,12.07,72,33,2.11,AU,1734196054
15,newport,51.5877,-2.9984,7.91,82,74,4.37,GB,1734196055
16,queenstown,-31.8976,26.8753,17.83,56,0,8.71,ZA,1734196058
17,geraldton,-28.7667,114.6,21.23,78,100,4.63,AU,1734196059
18,cabo san lucas,22.8909,-109.9124,27.64,55,20,1.03,MX,1734196060
19,mount gambier,-37.8333,140.7667,10.45,88,0,2.12,AU,1734196061
20,hermanus,-34.4187,19.2345,22.11,63,0,3.15,ZA,1734196062
21,east london,-33.0153,27.9116,21.04,66,10,5.75,ZA,1734196063
22,aasiaat,68.7098,-52.8699,-10.97,93,95,1.73,GL,1734196064
23,waitangi,-43.9535,-176.5597,16.01,95,92,1.79,NZ,1734196065
24,adamstown,-25.066,-130.1015,23.14,82,6,6.48,PN,1734196067
25,luena,-11.7833,19.9167,22.05,67,18,0.48,AO,1734196069
26,donetsk,48.0,37.8,-5.71,70,17,3.7,UA,1734196070
27,puerto ayacucho,5.6639,-67.6236,35.76,38,0,1.95,VE,1734196071
28,dudinka,69.4058,86.1778,-9.1,94,100,7.41,RU,1734196072
29,saint-philippe,-21.3585,55.7679,24.94,73,63,4.63,RE,1734196073
30,longford,53.7333,-7.8,7.56,94,100,5.07,IE,1734196075
31,sao vicente,-23.9631,-46.3919,23.91,88,100,2.37,BR,1734196076
32,invercargill,-46.4,168.35,7.23,92,74,2.49,NZ,1734196077
33,salekhard,66.53,66.6019,-13.84,94,100,6.57,RU,1734196078
34,yangjiang,21.85,111.9667,13.32,44,96,2.78,CN,1734196079
35,ingeniero jacobacci,-41.3427,-69.5448,25.42,16,0,0.77,AR,1734196080
36,kapa'a,22.0752,-159.319,24.18,83,100,7.2,US,1734196081
37,vorgashor,67.5833,63.95,-15.76,93,100,6.96,RU,1734196083
38,mata-utu,-13.2816,-176.1745,27.63,78,52,7.1,WF,1734196084
39,mandalgovi,45.7625,106.2708,-12.28,66,59,3.87,MN,1734196085
40,jamestown,42.097,-79.2353,-1.66,58,0,3.6,US,1734195952
41,encheng,22.1839,112.3026,13.12,41,78,3.45,CN,1734195915
42,badger,64.8,-147.5333,-21.05,71,0,3.09,US,1734196088
43,saldanha,-33.0117,17.9442,17.57,73,0,7.99,ZA,1734196089
44,ust-nera,64.5667,143.2,-28.82,98,90,0.71,RU,1734196090
45,petropavlovsk-kamchatsky,53.0452,158.6483,-9.21,81,88,5.56,RU,1734196092
46,kingston,17.997,-76.7936,28.53,61,20,2.06,JM,1734195908
47,lagos,6.5833,3.75,28.87,65,71,3.35,NG,1734195603
48,bilibino,68.0546,166.4372,-26.37,100,95,1.11,RU,1734196095
49,lihue,21.9789,-159.3672,23.77,83,100,7.2,US,1734196097
50,albany,42.6001,-73.9662,-1.16,59,2,0.45,US,1734196038
51,shulan,44.4167,126.95,-10.18,79,100,5.45,CN,1734196101
52,freetown,8.484,-13.2299,30.3,60,6,5.2,SL,1734196102
53,iqaluit,63.7506,-68.5145,-18.2,98,82,5.52,CA,1734196103
54,saipan,15.1355,145.701,27.39,82,20,4.63,MP,1734196105
55,island harbour,50.724,-1.2758,7.04,52,68,1.34,GB,1734196106
56,atafu village,-8.5421,-172.5159,27.81,77,40,5.65,TK,1734196107
57,westport,41.1415,-73.3579,0.75,50,0,3.6,US,1734196108
58,kiffa,16.6166,-11.4045,36.4,12,22,7.64,MR,1734196109
59,bandipura,34.4167,74.65,1.84,45,74,4.2,IN,1734196106
60,kotido,2.9806,34.1331,28.95,31,95,6.69,UG,1734196111
61,port lincoln,-34.7333,135.8667,19.3,75,6,3.97,AU,1734196112
62,buarcos,40.166,-8.8768,14.09,68,97,2.33,PT,1734196114
63,port alfred,-33.5906,26.891,21.21,78,3,1.79,ZA,1734196115
64,georgetown,5.4112,100.3354,26.96,78,20,1.03,MY,1734196007
65,hawaiian paradise park,19.5933,-154.9731,20.73,96,75,1.54,US,1734196117
66,livadiya,42.8692,132.6764,-5.65,57,15,5.45,RU,1734196118
67,puerto natales,-51.7236,-72.4875,18.25,42,40,12.86,CL,1734195976
68,sao tome,0.3365,6.7273,27.38,76,80,1.77,ST,1734196120
69,intibuca,14.3167,-88.1667,17.82,69,65,3.92,HN,1734196121
70,port elizabeth,-33.918,25.5701,20.73,78,1,1.79,ZA,1734196123
71,elverum,60.8819,11.5623,-10.17,99,70,1.02,NO,1734196060
72,mount pearl,47.5166,-52.7813,0.64,65,27,4.02,CA,1734196125
73,trairi,-3.2778,-39.2689,30.88,56,30,6.11,BR,1734195966
74,selfoss,63.9331,-20.9971,3.91,92,100,9.76,IS,1734196127
75,uglegorsk,49.0833,142.0333,-11.07,70,100,0.78,RU,1734196129
76,oltinko'l,40.8011,72.1634,1.69,68,97,1.62,UZ,1734196131
77,wattegama,6.7989,81.4808,23.6,93,50,1.48,LK,1734196132
78,port mathurin,-19.6833,63.4167,25.19,72,1,8.15,MU,1734196133
79,suntar,62.1444,117.6319,-31.28,99,95,1.49,RU,1734196134
80,hamilton,39.1834,-84.5333,7.17,62,20,1.79,US,1734195876
81,olinda,-8.0089,-34.8553,28.85,70,40,5.14,BR,1734195604
82,kramfors,62.9316,17.7765,-2.11,80,100,6.69,SE,1734196139
83,buala,-8.145,159.5921,26.87,82,100,0.57,SB,1734196140
84,papatowai,-46.5619,169.4708,8.43,82,72,2.53,NZ,1734196141
85,nuuk,64.1835,-51.7216,-2.66,93,75,4.12,GL,1734195845
86,utrik,11.2278,169.8474,27.21,79,41,10.7,MH,1734196143
87,west island,-12.1568,96.8225,26.99,83,75,6.69,CC,1734196144
88,chonchi,-42.6128,-73.8092,19.87,44,0,1.93,CL,1734196145
89,talnakh,69.4865,88.3972,-14.8,95,100,4.9,RU,1734196146
90,adam,22.3756,57.5233,21.52,40,0,3.32,OM,1734196148
91,tiksi,71.6872,128.8694,-17.94,99,100,2.84,RU,1734196149
92,zaragoza,41.6561,-0.8773,10.45,59,20,6.17,ES,1734196082
93,byerazino,53.8391,28.9879,-3.63,71,100,5.82,BY,1734196151
94,akureyri,65.6835,-18.0878,0.27,85,79,7.06,IS,1734196152
95,zouerate,22.7187,-12.4521,29.52,12,21,6.77,MR,1734196153
96,betare oya,5.6,14.0833,28.33,20,61,2.22,CM,1734196154
97,aykhal,66.0,111.5,-30.53,100,89,2.83,RU,1734196156
98,thompson,55.7435,-97.8558,-11.5,94,81,2.03,CA,1734196157
99,hasaki,35.7333,140.8333,7.43,36,99,3.32,JP,1734196158
100,palmer,42.1584,-72.3287,0.5,49,0,2.57,US,1734196144
101,dryden,49.7833,-92.7503,-6.66,80,80,5.02,CA,1734196160
102,galveston,29.3669,-94.9669,22.78,75,100,2.24,US,1734196161
103,olonkinbyen,70.9221,-8.7187,-4.16,68,100,3.79,SJ,1734196162
104,nantucket,41.2835,-70.0995,2.06,55,20,5.14,US,1734196163
105,tindouf,27.6711,-8.1474,20.18,20,65,3.87,DZ,1734196164
106,necochea,-38.5473,-58.7368,19.34,69,17,5.53,AR,1734196166
107,arvi,20.9833,78.2333,16.37,24,2,2.86,IN,1734196167
108,garachico,28.7781,-17.7646,22.49,56,40,1.54,ES,1734196168
109,college,64.8569,-147.8028,-21.01,59,0,3.09,US,1734196169
110,caras,-9.0467,-77.8114,19.16,73,99,3.44,PE,1734196170
111,moapa valley,36.5805,-114.4703,10.67,26,100,1.04,US,1734196171
112,isafjordur,66.0755,-23.124,-0.02,90,73,11.63,IS,1734195976
113,fayetteville,35.0527,-78.8784,11.23,69,0,5.66,US,1734195955
114,formosa do rio preto,-11.0483,-45.1931,33.72,35,99,1.73,BR,1734196175
115,contamana,-7.3333,-75.0167,34.95,42,100,2.19,PE,1734196177
116,anadyr,64.75,177.4833,-4.72,86,75,1.0,RU,1734196179
117,puerto ayora,-0.7393,-90.3518,23.64,95,91,2.24,EC,1734196180
118,san martin,-33.081,-68.4681,32.66,16,0,4.39,AR,1734196182
119,margaret river,-33.95,115.0667,17.23,85,21,5.74,AU,1734196183
120,anna regina,7.2644,-58.5077,28.3,70,43,3.01,GY,1734196184
121,manadhoo,5.7667,73.3833,27.41,79,80,2.64,MV,1734196186
122,viveiro,43.6623,-7.5934,10.13,79,5,1.36,ES,1734196141
123,luderitz,-26.6481,15.1594,18.43,72,0,7.88,NA,1734196188
124,nadym,65.5333,72.5167,-9.16,89,97,7.86,RU,1734196189
125,dzilam gonzalez,21.2833,-88.9333,28.68,53,12,3.19,MX,1734196191
126,kievka,50.2619,71.5514,0.68,97,100,9.88,KZ,1734196192
127,laojunmiao,39.8333,97.7333,-10.47,43,21,3.95,CN,1734196193
128,kodiak,57.79,-152.4072,-6.27,93,0,3.09,US,1734196091
129,mwanza,-2.5167,32.9,23.54,64,84,1.88,TZ,1734196196
130,ljusdal,61.8288,16.0913,-0.71,78,63,5.19,SE,1734196198
131,vallenar,-28.5708,-70.7581,24.77,26,0,4.7,CL,1734196199
132,keflavik,64.0049,-22.5624,4.24,81,75,12.35,IS,1734196200
133,klyuchi,52.2667,79.1667,-2.84,70,99,7.39,RU,1734196201
134,mejit,10.2753,170.8646,27.15,79,52,10.01,MH,1734196202
135,lakota,5.8528,-5.6883,33.13,35,52,2.39,CI,1734196203
136,sungai penuh,-2.0833,101.3833,18.3,96,96,1.04,ID,1734196066
137,south hedland,-20.4089,118.5983,27.96,89,100,6.69,AU,1734196206
138,midvagur,62.0511,-7.1939,7.46,100,75,5.14,FO,1734196207
139,kaka,37.3482,59.6143,0.77,94,100,9.92,TM,1734196208
140,mahdia,35.5047,11.0622,16.85,60,4,2.51,TN,1734196209
141,mao,39.8885,4.2658,12.31,76,20,1.03,ES,1734196212
142,flying fish cove,-10.4217,105.6791,25.82,94,100,2.06,CX,1734196214
143,kidal,18.4411,1.4078,27.78,6,73,5.26,ML,1734196215
144,sydney,-33.8679,151.2073,22.42,85,20,2.06,AU,1734195669
145,okha,53.5739,142.9478,-15.94,92,98,6.54,RU,1734196217
146,ola,59.5833,151.2833,-14.14,89,100,6.82,RU,1734196218
147,yushu,44.8,126.5333,-11.62,84,99,5.69,CN,1734196219
148,lijiang,26.8688,100.2207,1.08,61,1,1.46,CN,1734196221
149,salalah,17.0151,54.0924,23.24,64,4,1.03,OM,1734196056
150,kipushi,-11.7667,27.2333,19.42,89,68,3.24,CD,1734196223
151,kangaba,11.9333,-8.4167,34.87,11,80,4.62,ML,1734196034
152,iskateley,67.6803,53.1512,-20.73,89,94,2.88,RU,1734196225
153,mhamid,29.82,-5.72,19.5,21,59,2.77,MA,1734196226
154,rio grande,-32.035,-52.0986,25.28,65,68,7.06,BR,1734196227
155,chimbote,-9.0853,-78.5783,22.27,72,90,4.39,PE,1734196228
156,serdar,38.9764,56.2757,0.84,78,100,2.87,TM,1734196229
157,pathein,16.7833,94.7333,24.73,81,95,3.29,MM,1734196092
158,punta arenas,-53.15,-70.9167,14.06,41,40,7.72,CL,1734195367
159,serpukhov,54.9214,37.4108,-4.77,95,100,4.54,RU,1734196233
160,le port,-20.9373,55.2919,24.98,90,83,1.51,RE,1734196235
161,codrington,-38.2667,141.9667,9.75,91,1,3.38,AU,1734196237
162,novokayakent,42.3937,47.9861,-0.05,52,1,3.92,RU,1734196238
163,ulanhot,46.0833,122.0833,-10.79,66,1,5.08,CN,1734196239
164,freeport,40.6576,-73.5832,1.65,50,0,3.09,US,1734196240
165,carnarvon,-24.8667,113.6333,24.59,77,13,7.15,AU,1734196241
166,kone,-21.0595,164.8658,25.69,88,98,2.1,NC,1734196155
167,ribeira grande,38.5167,-28.7,18.22,52,20,9.77,PT,1734196243
168,san antonio de pale,-1.4014,5.6325,27.03,79,91,2.74,GQ,1734196245
169,villanueva,15.3167,-88.0,25.55,83,75,2.57,HN,1734196026
170,atar,20.5169,-13.0499,33.48,11,75,7.72,MR,1734196247
171,callao,-12.0667,-77.15,22.16,68,75,2.06,PE,1734196248
172,pizarro,4.9533,-77.366,25.84,89,87,4.85,CO,1734196249
173,nyurba,63.2842,118.3319,-28.99,97,98,2.53,RU,1734196250
174,qarazhal,48.0078,70.7903,-2.82,78,100,7.13,KZ,1734196251
175,yanliang,34.6592,109.2292,-1.16,28,1,1.34,CN,1734196018
176,paragominas,-2.9667,-47.4833,31.37,53,100,0.94,BR,1734196253
177,huarmey,-10.0681,-78.1522,22.78,73,95,4.39,PE,1734196255
178,maumere,-8.6199,122.2111,27.2,79,100,1.15,ID,1734196249
179,la fria,8.2203,-72.2439,28.7,68,46,2.13,VE,1734196257
180,taltal,-25.4,-70.4833,18.61,71,4,2.63,CL,1734196221
181,la sarre,48.8002,-79.1996,-11.42,86,70,3.26,CA,1734196259
182,stanley,54.868,-1.6985,5.85,86,20,5.14,GB,1734196259
183,salaya,22.3167,69.6,21.95,41,1,6.12,IN,1734196261
184,whitehorse,60.7161,-135.0538,-18.72,77,100,1.79,CA,1734196262
185,owando,-0.4819,15.8999,27.9,58,67,1.35,CG,1734196003
186,kavaratti,10.5669,72.642,27.93,79,93,5.58,IN,1734196265
187,aleg,17.0481,-13.9209,36.94,11,42,8.06,MR,1734196266
188,san julian,21.0167,-102.1667,21.72,25,14,2.79,MX,1734196267
189,shetpe,44.1667,52.1167,-4.45,94,100,6.7,KZ,1734196268
190,vigia,-0.8583,-48.1417,29.61,70,89,5.1,BR,1734196269
191,lebu,-37.6167,-73.65,15.59,62,0,8.1,CL,1734196270
192,zhangjiajie,29.1294,110.4783,3.34,54,2,0.7,CN,1734196271
193,la paz,-16.5,-68.15,17.99,52,75,3.6,BO,1734195987
194,les anglais,18.3054,-74.2197,26.6,66,18,0.1,HT,1734196274
195,taseyevo,57.2169,94.8978,-10.15,94,99,1.25,RU,1734196275
196,udachny,66.4167,112.4,-35.52,100,68,2.08,RU,1734196276
197,susuman,62.7833,148.1667,-27.57,92,100,1.74,RU,1734196277
198,north shore,-36.8,174.75,18.04,79,100,1.34,NZ,1734196278
199,kapuskasing,49.4169,-82.4331,-12.0,79,72,4.63,CA,1734196279
200,okhotsk,59.3833,143.3,-16.96,76,100,5.27,RU,1734196280
201,namibe,-15.1961,12.1522,23.62,76,49,5.0,AO,1734196282
202,tolanaro,-25.0319,46.9987,27.04,83,0,1.03,MG,1734196283
203,mohr,54.3528,9.7167,4.97,92,100,3.09,DE,1734196284
204,nouadhibou,20.931,-17.0347,29.99,17,100,2.57,MR,1734196285
205,qaqortoq,60.7167,-46.0333,-0.98,98,100,8.92,GL,1734196286
206,peterhead,57.5058,-1.7981,5.18,86,100,4.26,GB,1734196287
207,holualoa,19.6228,-155.9522,20.91,86,40,2.06,US,1734196288
208,saudarkrokur,65.7461,-19.6394,1.47,95,100,8.1,IS,1734196290
209,haiku-pauwela,20.9219,-156.3051,22.36,75,20,5.66,US,1734196291
210,murten/morat,46.9283,7.1172,4.99,81,100,2.57,CH,1734196292
211,alofi,-19.0595,-169.9187,24.94,83,75,7.72,NU,1734196293
212,uyar,55.81,94.3153,-8.48,88,100,1.73,RU,1734196294
213,sinabang,2.4803,96.3801,25.89,86,87,1.24,ID,1734196295
214,walvis bay,-22.9575,14.5053,17.57,76,11,6.79,NA,1734196296
215,byron bay,-28.65,153.6167,22.49,92,90,2.46,AU,1734196298
216,aral,40.5156,81.2636,-6.24,81,97,1.66,CN,1734196299
217,villa regina,-39.1,-67.0667,34.99,14,1,2.24,AR,1734196300
218,luanda,-8.8368,13.2343,29.0,79,20,5.66,AO,1734196015
219,hastings,50.8552,0.5729,5.99,51,83,5.62,GB,1734196064
220,daru,-9.0763,143.2092,26.27,87,97,2.5,PG,1734196303
221,northam,51.0333,-4.2167,7.52,82,28,5.59,GB,1734196304
222,kendari,-3.945,122.4989,24.29,96,96,1.02,ID,1734196305
223,carthage,36.8611,10.3316,15.74,77,20,4.12,TN,1734196308
224,kayangel,8.0823,134.7173,26.08,91,99,7.01,PW,1734196309
225,berezovyy,51.6667,135.7,-28.14,94,30,1.68,RU,1734196310
226,polonnaruwa,7.9333,81.0,23.37,94,63,1.46,LK,1734196311
227,karasburg,-28.0167,18.75,33.84,9,0,4.33,NA,1734196314
228,poronaysk,49.2167,143.1167,-18.49,96,85,2.19,RU,1734196315
229,karachayevsk,43.774,41.9142,-10.79,81,32,2.53,RU,1734196316
230,motala,58.5371,15.0365,2.05,84,46,5.48,SE,1734196317
231,zhezqazghan,47.7833,67.7667,-0.47,98,100,6.8,KZ,1734196319
232,malango,-2.9627,119.9001,20.17,97,100,0.8,ID,1734196320
233,ironwood,46.4547,-90.171,-4.55,68,75,4.63,US,1734196322
234,ulsteinvik,62.3432,5.8487,5.42,84,100,1.34,NO,1734196323
235,boa vista,2.8197,-60.6733,32.99,46,75,4.12,BR,1734196324
236,mount isa,-20.7333,139.5,26.87,47,11,2.06,AU,1734196172
237,hithadhoo,-0.6,73.0833,27.87,82,70,6.51,MV,1734196326
238,mokhsogollokh,61.4681,128.9203,-27.6,95,100,2.8,RU,1734196327
239,mega,4.05,38.3,21.25,37,39,3.14,ET,1734196328
240,kayyerkan,69.3786,87.7439,-13.52,91,100,5.36,RU,1734196329
241,abepura,-2.6333,140.5833,25.45,94,20,0.51,ID,1734196330
242,sanya,18.2431,109.505,17.83,65,100,2.24,CN,1734196332
243,koidu,8.4167,-10.8333,35.4,13,18,1.69,SL,1734196333
244,zeya,53.75,127.2667,-22.82,95,88,1.66,RU,1734196334
245,mossel bay,-34.1831,22.146,19.96,63,0,6.54,ZA,1734196335
246,bomdila,27.25,92.4,-1.39,75,20,3.56,IN,1734196336
247,happy valley-goose bay,53.3168,-60.3315,-2.89,54,100,7.48,CA,1734196161
248,smara,26.7384,-11.6719,26.98,16,78,4.97,EH,1734196338
249,arraial do cabo,-22.9661,-42.0278,27.92,69,75,8.75,BR,1734196231
250,elena,42.9333,25.8833,2.62,87,100,2.5,BG,1734196341
251,puerto aysen,-45.4,-72.7,16.6,73,67,2.04,CL,1734196233
252,uliastay,47.7417,96.8444,-18.45,60,1,3.32,MN,1734196048
253,khandyga,62.6667,135.6,-38.29,100,91,0.98,RU,1734196344
254,archangelos,36.2149,28.1149,12.39,64,3,0.2,GR,1734196346
255,st. john's,47.5649,-52.7093,1.1,61,27,4.47,CA,1734196216
256,fort-shevchenko,44.5086,50.263,-0.05,57,100,12.59,KZ,1734196348
257,soto la marina,23.7667,-98.2167,27.8,59,27,3.6,MX,1734196349
258,yuzhno-kurilsk,44.0306,145.8556,-2.91,66,92,7.14,RU,1734196350
259,vilyuysk,63.7553,121.6247,-26.2,98,100,2.65,RU,1734196351
260,vila franca do campo,37.7167,-25.4333,18.27,99,26,7.28,PT,1734196352
261,tromso,69.6496,18.957,-3.99,63,100,7.72,NO,1734196355
262,tahe,52.3333,124.7333,-15.81,75,57,4.84,CN,1734196356
263,kachkanar,58.7,59.4948,-12.58,88,99,3.48,RU,1734196274
264,sarmanovo,55.2553,52.5891,-12.9,93,100,6.82,RU,1734196358
265,bredasdorp,-34.5322,20.0403,20.05,53,0,4.71,ZA,1734196359
266,orchard homes,46.8633,-114.0484,2.18,83,75,2.24,US,1734196360
267,bosansko grahovo,44.1794,16.3639,2.49,97,100,1.49,BA,1734196361
268,edeia,-17.3383,-49.9314,32.44,45,93,4.04,BR,1734196363
269,jayapura,-2.5333,140.7,25.66,91,94,2.02,ID,1734196345
270,cananeia,-25.0147,-47.9267,24.7,81,100,3.51,BR,1734196159
271,rongelap,11.1635,166.8941,27.41,76,39,10.58,MH,1734196367
272,san patricio,28.017,-97.5169,24.97,80,100,5.41,US,1734196368
273,pierre,44.3683,-100.351,-2.49,86,100,3.6,US,1734196251
274,novodvinsk,64.4165,40.8122,-19.14,95,45,1.48,RU,1734196371
275,seichamps,48.7111,6.2619,0.63,91,75,0.89,FR,1734196372
276,sitka,57.0531,-135.33,-1.06,86,0,0.0,US,1734196373
277,yovon,38.3141,69.0378,10.67,49,100,2.13,TJ,1734196374
278,portland,45.5234,-122.6762,10.0,89,75,6.26,US,1734196252
279,wailua homesteads,22.0669,-159.378,23.44,83,100,7.2,US,1734196376
280,argostolion,38.1811,20.489,14.86,55,95,8.0,GR,1734196377
281,vadso,70.0744,29.7487,-10.91,85,20,6.17,NO,1734196379
282,weno,7.4515,151.8468,25.97,89,100,3.6,FM,1734196380
283,giyani,-23.3025,30.7187,23.76,66,93,6.49,ZA,1734196345
284,manismata,-2.4667,111.0333,23.99,96,100,0.54,ID,1734196382
285,tuzha,57.6062,47.936,-14.19,92,100,3.9,RU,1734196383
286,dwarka,22.2394,68.9678,22.47,45,2,7.33,IN,1734196384
287,paraparaumu,-40.9167,175.0167,16.64,98,100,4.05,NZ,1734196385
288,praia,14.9215,-23.5087,30.3,28,0,4.12,CV,1734196386
289,chudovo,59.1167,31.6833,-1.34,97,100,4.26,RU,1734196388
290,tura,25.5198,90.2201,14.71,79,0,1.7,IN,1734196389
291,mazagao,-0.115,-51.2894,31.07,58,99,3.08,BR,1734196390
292,nabire,-3.3667,135.4833,24.59,98,100,1.12,ID,1734196391
293,quartu sant'elena,39.2419,9.1839,13.91,76,20,2.57,IT,1734196392
294,la'ie,21.6477,-157.9253,23.39,79,39,2.68,US,1734196393
295,la mira,18.035,-102.3266,28.17,66,97,2.31,MX,1734196394
296,dombovar,46.3766,18.137,1.26,100,100,1.23,HU,1734196396
297,labytnangi,66.6572,66.4183,-13.55,95,100,6.23,RU,1734196397
298,newman,37.3138,-121.0208,12.25,83,97,4.02,US,1734196398
299,pokrovsk,48.282,37.1758,-6.61,75,15,4.63,UA,1734196399
300,isangel,-19.55,169.2667,25.28,89,75,2.71,VU,1734196400
301,south grafton,-29.7,152.95,21.37,98,10,0.63,AU,1734196401
302,lyantor,61.6195,72.1555,-6.89,90,100,7.97,RU,1734196262
303,saint-joseph,-21.3667,55.6167,24.21,74,65,4.14,RE,1734196404
304,ilulissat,69.2167,-51.1,-6.99,73,75,2.06,GL,1734196405
305,al kawa,13.7463,32.4996,28.27,30,0,4.63,SD,1734196406
306,anloga,5.7947,0.8973,28.77,70,6,5.09,GH,1734196407
307,jianshui,23.6363,102.8264,7.74,75,93,2.72,CN,1734196409
308,gigante,2.3868,-75.5453,28.31,57,53,2.81,CO,1734196410
309,lospalos,-8.5186,127.0025,23.7,93,100,0.63,TL,1734196411
310,hammerfest,70.6634,23.6821,-8.75,57,0,4.63,NO,1734196412
311,ancud,-41.8697,-73.8203,16.54,61,0,4.21,CL,1734196413
312,coquimbo,-29.9533,-71.3436,19.43,56,100,5.66,CL,1734196396
313,kununurra,-15.7667,128.7333,26.99,94,48,2.06,AU,1734196415
314,segezha,63.7415,34.3222,-10.95,80,80,1.27,RU,1734196416
315,itaituba,-4.2761,-55.9836,23.98,95,100,0.33,BR,1734196418
316,pitimbu,-7.4706,-34.8086,28.02,68,56,5.59,BR,1734196354
317,son la,21.3167,103.9,10.54,83,99,1.51,VN,1734196420
318,praia da vitoria,38.7333,-27.0667,16.14,67,40,11.9,PT,1734196421
319,glen innes,-29.7333,151.7333,14.64,98,39,2.08,AU,1734196422
320,tazovsky,67.4667,78.7,-8.66,92,99,7.43,RU,1734196423
321,camarinas,43.1311,-9.1817,12.08,65,2,4.2,ES,1734196424
322,bikenibeu village,1.3673,173.1241,27.98,83,20,4.63,KI,1734196425
323,fukuecho,32.6881,128.8419,9.01,62,100,9.61,JP,1734196427
324,ebaye,8.7748,167.7392,27.01,83,40,7.72,MH,1734196428
325,vetluzhskiy,58.3902,45.4654,-15.91,97,30,2.39,RU,1734196429
326,gaspe,48.8334,-64.4819,-0.88,40,75,6.69,CA,1734196430
327,puerto lempira,15.2667,-83.7667,26.82,80,5,5.68,HN,1734196431
328,sao joao da barra,-21.6403,-41.0511,31.05,87,100,7.56,BR,1734196133
329,tabas,33.5959,56.9244,13.12,38,56,5.14,IR,1734196433
330,nagqu,31.5,92.0,-12.72,16,0,0.41,CN,1734196434
331,tezu,27.9167,96.1667,15.58,31,0,2.17,IN,1734196436
332,chita,52.0333,113.55,-12.06,62,8,3.0,RU,1734196437
333,mar del plata,-38.0023,-57.5575,20.01,59,20,6.17,AR,1734196145
334,puerto baquerizo moreno,-0.9,-89.6,26.55,69,20,7.72,EC,1734196439
335,luba,3.4568,8.5547,27.84,76,79,3.03,GQ,1734196440
336,constantia,44.1833,28.65,2.61,70,88,8.88,RO,1734196202
337,ust'-kut,56.7938,105.7672,-13.85,99,100,0.92,RU,1734196442
338,bamboo flat,11.7,92.7167,25.63,91,100,6.25,IN,1734196443
339,the pas,53.8251,-101.2541,-11.11,91,67,2.6,CA,1734196274
340,mont-laurier,46.5501,-75.4993,-9.52,81,59,0.71,CA,1734196446
341,tiquipaya,-17.3382,-66.2189,25.4,36,75,2.57,BO,1734196447
342,bhum,18.4667,75.6667,17.64,28,4,4.19,IN,1734196448
343,tikhoretsk,45.8547,40.1253,-3.03,59,14,3.04,RU,1734196351
344,bukama,-9.2,25.85,24.65,82,32,1.42,CD,1734196450
345,chibougamau,49.9168,-74.3659,-12.21,79,100,4.12,CA,1734196157
346,alotau,-10.3069,150.4462,24.59,93,98,1.06,PG,1734196453
347,arica,-18.475,-70.3042,22.13,60,0,6.69,CL,1734196140
348,labrador city,52.9463,-66.9114,-7.05,63,100,7.2,CA,1734196455
349,mukalla,14.5425,49.1242,24.1,64,7,2.6,YE,1734196456
350,stanovoye,52.7638,38.3582,-5.02,68,100,7.67,RU,1734196457
351,yung shue wan,22.2333,114.1167,14.26,46,58,5.91,HK,1734196458
352,camacupa,-12.0167,17.4833,18.03,95,50,2.48,AO,1734196460
353,touros,-5.1989,-35.4608,29.22,66,57,6.39,BR,1734196205
354,barcelos,41.5388,-8.6151,11.05,68,4,1.4,PT,1734196462
355,i-n-salah,27.1935,2.4607,22.42,10,55,3.95,DZ,1734196463
356,ad dilinjat,30.8279,30.5363,13.15,65,1,3.6,EG,1734196464
357,kaoma,-14.7833,24.8,21.91,71,77,0.93,ZM,1734196465
358,angra do heroismo,38.65,-27.2167,16.34,67,40,11.78,PT,1734196466
359,puerto armuelles,8.2833,-82.8667,25.61,83,7,0.45,PA,1734196468
360,portoferraio,42.8115,10.3146,14.98,69,58,3.65,IT,1734196469
361,vanimo,-2.6741,141.3028,26.09,90,74,2.6,PG,1734196470
362,tadine,-21.55,167.8833,25.55,80,100,4.03,NC,1734196471
363,junnar,19.2,73.8833,17.88,34,1,2.32,IN,1734196473
364,nogliki,51.8333,143.1667,-24.13,98,29,3.81,RU,1734196475
365,yaren,-0.5472,166.916,27.48,83,43,4.1,NR,1734196476
366,padang,-0.9492,100.3543,25.03,81,78,1.58,ID,1734196225
367,alice springs,-23.7,133.8833,26.75,36,82,1.54,AU,1734196479
368,afaahiti,-17.75,-149.2833,23.06,82,100,10.05,PF,1734196480
369,remire-montjoly,4.9167,-52.2667,32.02,62,20,7.2,GF,1734196481
370,fraile pintado,-23.9408,-64.7994,30.96,40,66,3.2,AR,1734196483
371,inhambane,-23.865,35.3833,25.64,86,29,7.63,MZ,1734196484
372,swakopmund,-22.6833,14.5333,16.83,82,30,6.15,NA,1734196485
373,prince rupert,54.3161,-130.3201,3.83,92,100,11.83,CA,1734196486
374,holma,9.9008,13.0567,26.34,16,58,1.78,NG,1734196487
375,riohacha,11.5444,-72.9072,30.06,70,20,3.6,CO,1734195793
376,madang,-5.2246,145.7966,24.64,93,100,2.52,PG,1734196490
377,morioka,39.7036,141.1525,-1.82,95,17,1.88,JP,1734196491
378,broome,42.2506,-75.833,-1.92,68,0,2.57,US,1734196492
379,noshiro,40.2039,140.0242,3.56,58,99,8.52,JP,1734196493
380,ingeniero luis a. huergo,-39.0833,-67.2333,34.94,14,0,2.68,AR,1734196494
381,lerwick,60.1545,-1.1494,5.8,71,94,4.83,GB,1734196495
382,constitucion,-35.3333,-72.4167,20.86,51,3,4.91,CL,1734196200
383,vilyuchinsk,52.9306,158.4028,-8.85,82,80,4.18,RU,1734196498
384,lorengau,-2.0226,147.2712,26.38,82,100,0.79,PG,1734196499
385,savoy,45.5,6.4167,-1.82,74,100,0.9,FR,1734196500
386,suances,43.4334,-4.0434,11.1,96,75,3.6,ES,1734196501
387,malabar,-33.9667,151.25,22.65,84,20,1.54,AU,1734196502
388,altai,46.3722,96.2583,-13.62,28,0,0.81,MN,1734196503
389,tsiombe,-25.3,45.4833,25.15,79,1,2.78,MG,1734196504
390,inda silase,14.1031,38.2829,18.67,29,0,2.09,ET,1734196505
391,mandal,25.45,74.5667,13.48,19,0,0.92,IN,1734196507
392,passo fundo,-28.2628,-52.4067,24.14,71,41,6.27,BR,1734196508
393,borogontsy,62.6683,131.1683,-36.81,100,91,1.48,RU,1734196509
394,darnah,32.767,22.6367,16.49,71,38,1.36,LY,1734196510
395,coahuayana de hidalgo,18.7,-103.6583,30.85,48,93,1.39,MX,1734196511
396,andergrove,-21.0833,149.1833,24.83,86,5,3.56,AU,1734196512
397,fisterra,42.9049,-9.2629,13.32,56,2,2.19,ES,1734196514
398,tidjikja,18.5564,-11.4271,32.41,13,65,7.69,MR,1734196515
399,kiunga,-6.1219,141.2906,23.72,99,100,1.61,PG,1734196516
400,aripuana,-9.1667,-60.6333,32.6,49,100,1.23,BR,1734196517
401,bengkulu,-3.8004,102.2655,24.3,90,100,2.44,ID,1734196518
402,horta,38.5333,-28.6333,17.23,69,20,9.77,PT,1734196519
403,grand falls-windsor,48.9332,-55.6649,0.28,63,55,3.58,CA,1734196520
404,paracuru,-3.41,-39.0306,30.54,59,19,6.65,BR,1734196523
405,kota tinggi,1.7381,103.8999,26.13,96,76,1.3,MY,1734196524
406,saint-francois,46.4154,3.9054,5.79,94,75,4.63,FR,1734196525
407,taneytown,39.6579,-77.1744,1.85,51,0,0.0,US,1734196526
408,jackson,42.4165,-122.8345,5.95,94,100,2.06,US,1734196423
409,santander,43.4647,-3.8044,10.81,86,75,3.6,ES,1734196529
410,brisas de zicatela,15.8369,-97.0419,29.29,70,0,2.57,MX,1734196531
411,la passe,45.5549,-0.8967,8.29,82,52,2.5,FR,1734196532
412,pavlovsk,50.4578,40.1081,-4.82,73,92,7.58,RU,1734196534
413,kirensk,57.7853,108.1119,-14.8,98,100,1.41,RU,1734196536
414,papao,-17.75,-149.55,24.82,78,100,11.22,PF,1734196537
415,chui,-33.6971,-53.4616,20.93,82,90,7.83,UY,1734196439
416,cabedelo,-6.9811,-34.8339,30.37,69,58,6.35,BR,1734196540
417,karbala,32.616,44.0249,11.98,26,0,9.45,IQ,1734196541
418,prado,-17.3411,-39.2208,27.92,67,98,5.94,BR,1734196542
419,aranda de duero,41.6704,-3.6892,3.32,72,5,2.53,ES,1734196544
420,kerikeri,-35.2268,173.9474,17.17,93,100,2.24,NZ,1734196545
421,kumher,27.3167,77.3667,13.17,22,0,3.0,IN,1734196546
422,at taj,24.2049,23.2857,15.75,39,41,5.28,LY,1734196547
423,san luis,-33.295,-66.3356,30.81,14,0,3.12,AR,1734196548
424,poltava,49.5937,34.5407,-4.34,48,56,5.9,UA,1734196361
425,jinchang,38.4953,102.1739,-8.36,42,64,2.42,CN,1734196551
426,pula,44.8683,13.8481,5.31,87,75,1.03,HR,1734196552
427,jiwani,25.05,61.7417,22.77,52,0,2.25,PK,1734196553
428,ati,13.2154,18.3353,26.57,13,17,4.53,TD,1734196554
429,tofol,5.3248,163.0078,28.41,77,48,7.88,FM,1734196555
430,perelyub,51.8667,50.3667,-10.28,91,98,5.77,RU,1734196556
431,sarangani,5.4033,125.4636,27.61,77,100,2.23,PH,1734196558
432,fale old settlement,-9.3852,-171.2468,27.68,76,61,4.98,TK,1734196559
433,oral,51.2333,51.3667,-10.01,85,75,5.0,KZ,1734196560
434,bom jesus,-9.0744,-44.3586,40.01,19,43,3.69,BR,1734196561
435,harstad,68.799,16.5293,-1.58,81,100,10.73,NO,1734196562
436,bandarbeyla,9.4942,50.8122,25.24,77,23,7.89,SO,1734196563
437,crane,31.3974,-102.3501,16.14,27,0,1.9,US,1734196564
438,avarua,-21.2078,-159.775,24.03,88,75,8.23,CK,1734196566
439,turpan,42.9333,89.1667,-6.31,62,0,0.89,CN,1734196567
440,itacare,-14.2775,-38.9967,28.84,60,74,3.49,BR,1734196568
441,tomatlan,19.9333,-105.25,30.52,30,47,1.94,MX,1734196569
442,shitanjing,39.2342,106.3439,-9.53,37,0,2.08,CN,1734196570
443,bandon,51.7469,-8.7425,8.77,83,99,3.89,IE,1734196571
444,nieuw amsterdam,5.8833,-55.0833,30.53,62,91,5.51,SR,1734196572
445,aweil,8.7682,27.4002,27.98,25,6,2.53,SS,1734196573
446,spring creek,40.7266,-115.5859,2.12,85,100,2.24,US,1734196574
447,san andres,12.5847,-81.7006,27.01,78,40,6.69,CO,1734196576
448,yelizovo,53.1873,158.3805,-8.92,57,75,5.0,RU,1734196577
449,bardai,11.65,7.2333,23.83,13,4,4.29,NG,1734196579
450,gokceada,40.2011,25.909,9.18,61,61,1.89,TR,1734196580
451,turtas,58.9417,69.1325,-6.77,89,100,4.13,RU,1734196581
452,camana,-16.6228,-72.7111,21.82,76,61,4.36,PE,1734196582
453,puerto deseado,-47.7503,-65.8938,17.62,46,1,4.92,AR,1734196537
454,acarau,-2.8856,-40.12,30.96,57,54,7.65,BR,1734196516
455,nova sintra,14.8667,-24.7167,24.95,73,78,3.31,CV,1734196585
456,chernushka,56.5072,56.0766,-11.89,94,100,5.23,RU,1734196586
457,ghauspur,28.1391,69.0831,14.98,16,4,1.89,PK,1734196588
458,rivera,-30.9053,-55.5508,27.95,99,61,6.16,UY,1734196378
459,benghazi,32.1167,20.0667,18.07,64,29,4.31,LY,1734196590
460,tegueste,28.5167,-16.3167,19.44,68,20,6.17,ES,1734196591
461,dunedin,-45.8742,170.5036,11.0,98,100,1.34,NZ,1734196451
462,punta del este,-34.9667,-54.95,24.06,91,75,5.66,UY,1734196535
463,cambria,35.5641,-121.0808,14.02,92,85,4.47,US,1734196594
464,zyryanovsk,49.7386,84.2719,-17.09,90,99,0.88,KZ,1734196595
465,el nido,11.1858,119.3956,25.64,94,82,4.33,PH,1734196597
466,tangalle,6.024,80.7911,23.83,93,100,0.81,LK,1734196598
467,magadan,59.5667,150.8,-13.49,82,100,5.08,RU,1734196599
468,naha,26.2125,127.6811,15.16,83,75,2.06,JP,1734196601
469,minas de marcona,-15.2119,-75.1103,21.61,55,95,6.74,PE,1734196602
470,batie,9.8833,-2.9167,35.17,7,2,3.67,BF,1734196603
471,pangody,65.85,74.4859,-8.05,91,100,7.98,RU,1734196604
472,basi,26.8333,76.0333,12.19,16,0,2.29,IN,1734196606
473,molochnoye,59.2917,39.6787,-14.19,94,24,1.85,RU,1734196607
474,guerrero negro,27.9769,-114.0611,17.21,65,1,1.64,MX,1734196608
475,edson,53.5835,-116.4356,-6.92,93,100,1.03,CA,1734196609
476,saint-pierre,-21.3393,55.4781,24.82,65,0,1.54,RE,1734196610
477,linhares,-19.3911,-40.0722,31.08,53,100,4.33,BR,1734196451
478,makueni boma,-1.8041,37.6203,18.69,95,100,1.32,KE,1734196612
479,matoury,4.8483,-52.3317,31.98,62,20,7.2,GF,1734196325
480,adrar,20.5022,-10.0711,30.56,12,64,5.87,MR,1734196615
481,gizo,-8.103,156.8419,28.29,76,99,1.43,SB,1734196616
482,lodja,-3.4833,23.4333,26.06,67,95,0.26,CD,1734196617
483,mozarlandia,-14.7447,-50.5706,32.29,53,93,2.83,BR,1734196618
484,sao bento,-6.2833,-37.75,32.95,39,52,5.05,BR,1734196439
485,gadzhiyevo,69.2551,33.3362,-15.25,99,100,2.9,RU,1734196620
486,merizo village,13.2658,144.6691,26.88,84,79,7.27,GU,1734196621
487,blenheim,-41.516,173.9528,15.0,83,100,4.89,NZ,1734196622
488,usinsk,65.9939,57.5281,-13.89,93,100,7.71,RU,1734196624
489,sirjan,29.452,55.6814,8.56,62,98,6.21,IR,1734196625
490,san miguel,13.4833,-88.1833,31.09,43,7,1.73,SV,1734196624
491,douglas,41.3,-96.167,1.49,95,100,2.57,US,1734196627
492,ujae,8.9322,165.7642,27.68,80,54,11.06,MH,1734196628
493,bambanglipuro,-7.95,110.2833,23.79,94,100,1.53,ID,1734196629
494,miedzyzdroje,53.9292,14.451,1.1,97,100,10.22,PL,1734196630
495,srinagar,34.0833,74.8167,1.59,31,48,0.59,IN,1734196631
496,shar,49.5886,81.0453,-2.43,54,100,9.7,KZ,1734196632
497,gogapur,23.55,75.5167,13.73,24,2,3.29,IN,1734196634
498,hadibu,12.65,54.0333,24.93,65,47,4.43,YE,1734196635
499,opuwo,-18.0607,13.84,29.71,32,99,1.8,NA,1734196636
500,vila do maio,15.1333,-23.2167,24.68,73,98,3.47,CV,1734196637
501,luwuk,-0.9516,122.7875,23.61,86,100,1.95,ID,1734196638
502,ribeira brava,32.65,-17.0667,19.84,72,100,7.35,PT,1734196639
503,puerto santa,-8.9906,-78.6456,21.26,77,83,4.28,PE,1734196641
504,nelson bay,-32.7167,152.15,21.73,98,56,1.79,AU,1734196643
505,bel ombre,-4.6167,55.4167,27.91,78,40,2.06,SC,1734196644
506,hopelchen,19.7667,-89.85,29.2,49,10,2.18,MX,1734196645
507,minbu,20.1833,94.8833,20.17,66,0,2.17,MM,1734196647
508,hamada,34.8833,132.0833,6.88,59,99,10.92,JP,1734196648
509,port hedland,-20.3167,118.5667,28.03,89,100,6.69,AU,1734196649
510,burang,30.25,81.1667,-4.89,23,0,0.87,CN,1734196650
511,choele choel,-39.2667,-65.6833,30.49,23,0,1.56,AR,1734196651
512,khmilnyk,49.5598,27.9575,-4.07,88,98,4.28,UA,1734196652
513,port saint john's,-31.6229,29.5448,21.0,68,9,4.97,ZA,1734196653
514,puerto rico,-26.796,-55.024,29.76,51,46,2.83,AR,1734196654
515,nemuro,43.3236,145.575,-3.88,66,2,6.12,JP,1734196393
516,cidreira,-30.1811,-50.2056,22.92,87,92,3.01,BR,1734196657
517,homer,59.6425,-151.5483,-4.02,100,0,2.06,US,1734196658
518,new plymouth,-39.0667,174.0833,17.12,100,66,1.49,NZ,1734196659
519,moree,-29.4667,149.85,25.3,65,19,4.49,AU,1734196661
520,macia,-25.0269,33.0989,23.75,71,70,4.72,MZ,1734196662
521,manta,-0.95,-80.7333,27.88,69,75,3.6,EC,1734196663
522,ashland,40.8167,-82.2665,1.3,86,92,4.24,US,1734196665
523,amga,60.8953,131.9608,-33.12,100,97,1.14,RU,1734196666
524,yakakent,41.6325,35.5289,2.76,67,2,4.49,TR,1734196667
525,porto novo,6.4965,2.6036,29.9,65,12,4.09,BJ,1734196509
526,west bay,19.3667,-81.4167,28.36,61,40,9.77,KY,1734196669
527,fort bragg,35.139,-79.006,10.93,67,0,5.14,US,1734196670
528,ginir,7.1333,40.7,16.03,44,15,0.86,ET,1734196671
529,san luis de la loma,17.2706,-100.8939,28.84,63,44,2.22,MX,1734196672
530,progreso,21.2833,-89.6667,26.53,64,1,5.85,MX,1734196674
531,puerto leguizamo,-0.1934,-74.7819,25.12,81,87,0.3,CO,1734196675
532,mili,6.0815,171.735,28.19,72,11,10.65,MH,1734196676
533,islamorada,24.9243,-80.6278,21.74,85,4,7.61,US,1734196677
534,togur,58.3631,82.8265,-8.81,96,100,3.0,RU,1734196678
535,biel/bienne,47.1324,7.2441,5.17,92,100,2.06,CH,1734196680
536,bijie,27.3125,105.2942,-1.52,91,87,1.39,CN,1734196682
537,akrehamn,59.2667,5.1833,5.14,75,75,6.17,NO,1734196683
538,yacimiento rio turbio,-51.5732,-72.3508,14.66,42,40,12.86,AR,1734196684
539,kuching,1.55,110.3333,27.24,97,40,1.03,MY,1734196548
540,okeechobee,27.2439,-80.8298,21.68,100,77,5.14,US,1734196679
541,fortaleza,-3.7227,-38.5247,30.07,66,20,6.69,BR,1734196386
542,vernon,50.2581,-119.2691,2.64,91,100,1.54,CA,1734196688
543,harper,4.375,-7.7169,28.31,73,25,5.16,LR,1734196487
544,yigo village,13.5361,144.8886,26.19,84,75,5.14,GU,1734196691
545,ust'-charyshskaya pristan',52.3934,83.6635,-9.33,91,98,0.06,RU,1734196692
546,el sauzal de rodriguez,31.9,-116.6833,15.69,51,84,0.9,MX,1734196693
547,tulun,54.5611,100.5792,-13.11,96,73,1.34,RU,1734196694
548,meadow lakes,61.6247,-149.6011,-3.6,89,100,1.54,US,1734196695
549,adh dhibiyah,24.5014,45.9686,14.06,37,0,5.9,SA,1734196696
550,christchurch,-43.5333,172.6333,14.39,83,75,2.06,NZ,1734196236
551,harar,9.3094,42.1258,15.83,32,20,5.19,ET,1734196699
552,cidade velha,14.9167,-23.6167,30.26,28,0,4.12,CV,1734196572
553,konstantinovskiy,57.8301,39.5899,-18.64,100,74,2.09,RU,1734196701
554,lazaro cardenas,17.9583,-102.2,28.21,68,85,2.4,MX,1734196702
555,ouadda,8.0777,22.4007,26.68,25,29,2.2,CF,1734196704
556,stayton,44.8007,-122.7945,8.71,91,88,0.89,US,1734196705
557,miyako,39.6367,141.9525,-1.87,77,25,2.21,JP,1734196707
558,quesnel,52.9999,-122.5029,0.28,100,75,1.54,CA,1734196708
559,tralee,52.2704,-9.7026,9.14,100,100,3.6,IE,1734196709
560,betio village,1.358,172.9211,28.02,81,32,6.81,KI,1734196710
561,el granada,37.5027,-122.4694,12.97,91,100,8.75,US,1734196711
562,xining,36.6167,101.7667,-13.63,83,51,0.61,CN,1734196712
563,dauphin,51.1494,-100.0502,-6.92,68,0,0.0,CA,1734196713
564,funafuti,-8.5243,179.1942,27.87,73,96,0.69,TV,1734196714
565,sao bernardo,-3.3614,-42.4178,38.67,25,73,1.18,BR,1734196697
566,maragogi,-9.0122,-35.2225,28.36,68,41,5.9,BR,1734196717
567,craiova,44.3167,23.8,3.41,90,75,0.0,RO,1734196718
568,salinopolis,-0.6136,-47.3561,29.56,67,68,5.68,BR,1734196459
569,khadyzhensk,44.4256,39.5319,-2.95,68,37,1.6,RU,1734196720
570,vorkuta,67.5,64.0,-15.2,93,100,6.13,RU,1734196721
571,bella vista,36.4295,-94.2316,12.75,96,100,6.17,US,1734196722
572,bodo,67.28,14.405,-0.98,57,0,11.32,NO,1734196723
