City_ID,City,Lat,Lng,Max Temp,Humidity,Cloudiness,Wind Speed,Country,Date
0,edinburgh of the seven seas,-37.0676,-12.3116,12.72,67,45,3.37,SH,1734225914
1,port mathurin,-19.6833,63.4167,25.38,74,41,7.97,MU,1734226125
2,hadibu,12.65,54.0333,23.82,79,59,4.93,YE,1734226126
3,kingston,17.997,-76.7936,22.34,85,0,2.0,JM,1734225499
4,san pedro pochutla,15.7333,-96.4667,31.84,84,100,1.51,MX,1734226128
5,puerto natales,-51.7236,-72.4875,9.17,75,80,1.9,CL,1734226129
6,olonkinbyen,70.9221,-8.7187,-2.49,98,100,9.31,SJ,1734226131
7,wailua homesteads,22.0669,-159.378,25.63,79,40,6.17,US,1734226132
8,gobabis,-22.45,18.9667,23.77,47,100,2.74,NA,1734226133
9,pevely,38.2834,-90.3951,9.27,95,100,6.44,US,1734226048
10,waitangi,-43.9535,-176.5597,15.0,98,100,2.75,NZ,1734226135
11,kourou,5.1552,-52.6478,24.75,92,89,2.2,GF,1734226136
12,blackmans bay,-43.0167,147.3167,21.4,61,6,0.89,AU,1734226137
13,petropavlovsk-kamchatsky,53.0452,158.6483,-5.67,46,40,2.0,RU,1734226138
14,isafjordur,66.0755,-23.124,-2.51,85,97,10.91,IS,1734226140
15,bethel,41.3712,-73.414,-2.99,66,7,1.44,US,1734226141
16,viedma,-40.8135,-62.9967,20.16,53,0,4.29,AR,1734225612
17,hamilton,39.1834,-84.5333,7.28,78,100,6.17,US,1734225922
18,port alfred,-33.5906,26.891,17.88,87,0,0.45,ZA,1734225994
19,avarua,-21.2078,-159.775,25.03,94,75,12.35,CK,1734226004
20,port-aux-francais,-49.35,70.2167,2.81,98,100,4.7,TF,1734226146
21,sinabang,2.4803,96.3801,26.65,85,100,1.08,ID,1734226147
22,mitchell,43.7094,-98.0298,-1.58,99,100,2.68,US,1734225987
23,bilibino,68.0546,166.4372,-25.32,100,93,0.76,RU,1734226150
24,debila,33.5167,6.95,8.04,76,0,1.54,DZ,1734226151
25,slave lake,55.2834,-114.769,-7.01,93,100,5.14,CA,1734226080
26,kendari,-3.945,122.4989,26.78,88,100,1.18,ID,1734226153
27,grytviken,-54.2811,-36.5092,4.66,74,98,0.59,GS,1734226154
28,port elizabeth,-33.918,25.5701,17.16,93,0,3.09,ZA,1734226117
29,labrador city,52.9463,-66.9114,-12.05,72,75,6.17,CA,1734226156
30,athol,42.5959,-72.2268,-6.81,79,0,0.0,US,1734226158
31,georgetown,5.4112,100.3354,27.96,83,20,1.54,MY,1734226159
32,hithadhoo,-0.6,73.0833,27.79,79,9,7.2,MV,1734226160
33,ogoja,6.6547,8.7976,23.66,22,87,3.23,NG,1734226161
34,ivdel',60.6911,60.4206,-14.81,93,100,1.78,RU,1734226162
35,ruangwa,-10.0667,38.9333,22.93,98,100,1.54,TZ,1734226163
36,adamstown,-25.066,-130.1015,23.82,82,53,8.32,PN,1734226164
37,iqaluit,63.7506,-68.5145,-13.15,71,40,2.57,CA,1734226165
38,kamina,-8.7386,24.9906,17.77,97,100,1.67,CD,1734226166
39,papao,-17.75,-149.55,28.82,76,100,5.43,PF,1734226168
40,belyy yar,53.6039,91.3903,-17.06,85,100,0.0,RU,1734226169
41,itupiranga,-5.1347,-49.3267,24.23,93,100,0.89,BR,1734226170
42,codrington,-38.2667,141.9667,27.2,36,0,1.25,AU,1734226171
43,kailua-kona,19.6406,-155.9956,27.93,80,40,4.12,US,1734226172
44,constitucion,-35.3333,-72.4167,13.07,80,0,3.3,CL,1734226173
45,city of balikpapan,-1.242,116.8942,23.97,88,20,4.63,ID,1734226174
46,badger,64.8,-147.5333,-27.57,83,20,0.0,US,1734226176
47,jabor,5.921,169.6434,28.29,72,100,8.03,MH,1734226177
48,sinop,41.7711,34.8709,-2.2,73,100,7.33,TR,1734226179
49,midvagur,62.0511,-7.1939,9.46,93,100,11.32,FO,1734226180
50,berdigestyakh,62.0989,126.6992,-30.19,98,89,2.29,RU,1734226181
51,floro,61.5996,5.0328,3.98,87,100,7.72,NO,1734226182
52,yellowknife,62.456,-114.3525,-26.36,76,20,1.54,CA,1734226184
53,ambalangoda,6.2355,80.0538,26.66,90,100,2.23,LK,1734226185
54,hastings,50.8552,0.5729,5.66,51,37,5.41,GB,1734226186
55,homer,59.6425,-151.5483,-0.13,93,75,2.57,US,1734226187
56,kaitong,44.8135,123.15,-9.01,65,0,5.06,CN,1734226188
57,enewetak,11.3474,162.3373,27.74,79,3,10.2,MH,1734226189
58,ribeira grande,38.5167,-28.7,16.54,70,95,7.6,PT,1734226190
59,talnakh,69.4865,88.3972,-11.44,91,100,5.36,RU,1734226191
60,san carlos,9.6612,-68.5827,26.37,58,55,1.64,VE,1734226193
61,lebu,-37.6167,-73.65,12.89,88,0,7.63,CL,1734226194
62,west island,-12.1568,96.8225,26.99,83,75,4.63,CC,1734226195
63,ushuaia,-54.8,-68.3,8.81,57,75,3.09,AR,1734226091
64,horodenka,48.6727,25.5016,-3.49,97,100,1.5,UA,1734226197
65,moose jaw,50.4001,-105.5344,1.14,69,100,3.09,CA,1734226134
66,liwale,-9.7667,37.9333,21.69,98,95,1.39,TZ,1734226199
67,whitehorse,60.7161,-135.0538,-13.57,92,100,1.03,CA,1734226140
68,lihue,21.9789,-159.3672,25.97,73,40,6.17,US,1734226201
69,kununurra,-15.7667,128.7333,33.99,66,80,1.03,AU,1734226203
70,ust-tsilma,65.441,52.1498,-18.33,94,100,1.83,RU,1734226204
71,lompoc,34.6391,-120.4579,13.4,72,0,3.6,US,1734226205
72,bubaque,11.2833,-15.8333,26.52,80,84,3.85,GW,1734226206
73,andapa,-14.65,49.65,21.47,99,100,0.64,MG,1734226207
74,qaqortoq,60.7167,-46.0333,-6.58,98,38,0.66,GL,1734226208
75,barah,13.7,30.3667,17.75,25,4,5.49,SD,1734226210
76,bredasdorp,-34.5322,20.0403,15.68,76,1,3.07,ZA,1734226211
77,darovskoy,58.77,47.9564,-18.99,99,75,1.67,RU,1734226212
78,pulivendla,14.4167,78.2333,19.63,83,11,1.04,IN,1734226213
79,nishinoomote,30.7333,131.0,11.31,62,75,4.12,JP,1734226214
80,utrik,11.2278,169.8474,27.64,80,8,9.32,MH,1734226217
81,beyneu,45.3167,55.2,-4.86,81,80,6.85,KZ,1734226218
82,ilulissat,69.2167,-51.1,-4.99,86,100,5.14,GL,1734226124
83,burang,30.25,81.1667,-5.08,16,0,0.61,CN,1734226220
84,muisne,0.6,-80.0333,24.06,85,96,3.74,EC,1734226221
85,bel ombre,-4.6167,55.4167,24.91,94,75,1.03,SC,1734226222
86,deori khas,23.4,79.0167,9.64,34,5,0.37,IN,1734226223
87,klyuchi,52.2667,79.1667,-4.51,72,74,6.45,RU,1734226224
88,happy valley-goose bay,53.3168,-60.3315,-3.83,50,75,3.6,CA,1734226088
89,papatowai,-46.5619,169.4708,16.86,56,100,2.51,NZ,1734226227
90,new norfolk,-42.7826,147.0587,22.06,33,2,1.81,AU,1734226228
91,alotau,-10.3069,150.4462,30.83,68,100,2.8,PG,1734226229
92,college,64.8569,-147.8028,-27.52,83,20,0.0,US,1734226230
93,hilton head island,32.2163,-80.7526,14.47,72,80,2.24,US,1734226117
94,salym,60.0625,71.4789,-7.21,95,100,2.86,RU,1734226232
95,egilsstadir,65.2653,-14.3948,2.95,60,0,7.72,IS,1734226233
96,jesup,31.6074,-81.8854,14.96,82,100,3.6,US,1734226235
97,hermanus,-34.4187,19.2345,13.22,79,3,5.06,ZA,1734226236
98,quadrivio,45.0297,9.2223,1.45,95,2,1.15,IT,1734226237
99,uturoa,-16.7333,-151.4333,25.32,83,100,8.9,PF,1734226238
100,karasburg,-28.0167,18.75,19.74,29,0,5.48,NA,1734226239
101,la passe,45.5549,-0.8967,6.1,87,87,2.73,FR,1734226240
102,port moresby,-9.4431,147.1797,32.68,58,20,3.09,PG,1734226242
103,longyearbyen,78.2186,15.6401,-5.09,54,75,2.57,SJ,1734226243
104,mezhdurechenskiy,59.6,65.9333,-12.12,96,99,2.78,RU,1734226245
105,invercargill,-46.4,168.35,17.48,42,100,3.55,NZ,1734226246
106,antofagasta,-23.65,-70.4,17.6,80,11,1.61,CL,1734225956
107,rumbek,6.802,29.6912,24.51,36,40,2.24,SS,1734226248
108,pimentel,-6.8367,-79.9342,21.16,73,0,9.26,PE,1734226010
109,fortuna,40.5982,-124.1573,9.08,96,100,0.0,US,1734226251
110,pak phanang,8.3511,100.202,24.65,97,100,7.79,TH,1734226252
111,acarau,-2.8856,-40.12,26.76,78,83,6.73,BR,1734226253
112,marsh harbour,26.5412,-77.0636,23.11,77,87,13.6,BS,1734226254
113,rawson,-43.3002,-65.1023,15.16,67,0,3.09,AR,1734226243
114,petrovsk-zabaykal'skiy,51.273,108.843,-14.44,89,100,1.91,RU,1734226256
115,fale old settlement,-9.3852,-171.2468,28.23,74,62,6.18,TK,1734226258
116,lodja,-3.4833,23.4333,20.63,92,92,0.31,CD,1734226259
117,pontianak,-0.0333,109.3333,27.99,89,20,3.09,ID,1734226260
118,novodvinsk,64.4165,40.8122,-13.14,100,86,1.15,RU,1734226261
119,dudinka,69.4058,86.1778,-9.98,91,100,9.11,RU,1734226262
120,nova sintra,14.8667,-24.7167,24.77,77,100,5.64,CV,1734226263
121,illapel,-31.6308,-71.1653,16.0,70,0,0.47,CL,1734226220
122,mejit,10.2753,170.8646,27.63,81,6,8.57,MH,1734226265
123,punta arenas,-53.15,-70.9167,9.06,71,0,1.54,CL,1734225889
124,afaahiti,-17.75,-149.2833,24.5,79,100,3.68,PF,1734226268
125,makinsk,52.6292,70.4169,-7.49,90,100,7.35,KZ,1734226070
126,nyandoma,61.669,40.1991,-16.18,99,100,2.17,RU,1734226270
127,luderitz,-26.6481,15.1594,14.25,94,1,3.54,NA,1734226271
128,masterton,-40.9597,175.6575,27.12,36,61,3.14,NZ,1734226272
129,aasiaat,68.7098,-52.8699,-7.13,94,100,4.88,GL,1734226273
130,yuzhno-kurilsk,44.0306,145.8556,-1.04,54,98,5.93,RU,1734226274
131,zakamensk,50.3741,103.2863,-14.78,81,100,1.49,RU,1734226276
132,port pirie,-33.1833,138.0167,36.74,18,76,3.93,AU,1734226277
133,tura,25.5198,90.2201,16.26,67,0,1.0,IN,1734226278
134,bahawalnagar,30.5508,73.3908,9.95,20,96,1.23,PK,1734226280
135,salekhard,66.53,66.6019,-25.66,100,87,1.28,RU,1734226281
136,askoy,60.4092,5.226,2.16,100,75,3.09,NO,1734226283
137,corfu,39.62,19.9197,13.78,93,40,0.0,GR,1734226284
138,tabas,33.5959,56.9244,3.59,59,84,7.77,IR,1734226285
139,poronaysk,49.2167,143.1167,-13.72,84,30,2.21,RU,1734226287
140,reyes,-14.3167,-67.3833,23.15,99,100,0.65,BO,1734226289
141,albany,42.6001,-73.9662,-5.36,74,4,0.64,US,1734225938
142,cabo san lucas,22.8909,-109.9124,23.2,65,20,0.0,MX,1734226292
143,urangan,-25.3,152.9,25.72,82,100,9.07,AU,1734226293
144,nacozari viejo,30.4,-109.65,9.07,47,19,0.17,MX,1734226294
145,blenheim,-41.516,173.9528,28.62,48,100,1.34,NZ,1734226295
146,quellon,-43.1167,-73.6167,10.72,88,0,4.38,CL,1734226296
147,russellville,35.2784,-93.1338,12.08,94,75,0.0,US,1734226298
148,guia lopes da laguna,-21.4578,-56.1142,22.19,95,88,1.29,BR,1734226299
149,juan aldama,24.2908,-103.3944,16.69,35,0,1.69,MX,1734226300
150,kristiansund,63.1115,7.732,3.4,81,75,3.09,NO,1734226301
151,qarazhal,48.0078,70.7903,-3.02,97,100,5.42,KZ,1734226302
152,vardenis,40.1827,45.7311,-13.03,75,3,1.23,AM,1734226303
153,madera,37.1666,-119.8343,11.67,81,100,1.83,US,1734226304
154,constantia,44.1833,28.65,2.61,88,100,5.09,RO,1734226305
155,lubango,-14.9172,13.4925,15.92,100,0,2.06,AO,1734226307
156,hawaiian paradise park,19.5933,-154.9731,24.94,84,36,2.24,US,1734226308
157,thompson,55.7435,-97.8558,-9.91,92,100,0.0,CA,1734226309
158,kruisfontein,-34.0033,24.7314,14.82,78,0,2.94,ZA,1734226091
159,sitka,57.0531,-135.33,0.26,91,22,1.17,US,1734226311
160,lata,40.1629,-8.3327,5.05,92,1,2.1,PT,1734226312
161,kalifornsky,60.4183,-151.29,-1.45,100,100,1.54,US,1734226313
162,xilin hot,43.9667,116.0333,-11.1,77,3,4.88,CN,1734226314
163,pacocha,-17.5833,-71.3333,19.04,87,30,1.38,PE,1734226316
164,ust-nera,64.5667,143.2,-26.74,98,100,1.52,RU,1734226317
165,east london,-33.0153,27.9116,17.71,81,1,6.25,ZA,1734226318
166,crucecita,-28.95,-58.9833,20.57,60,0,2.69,AR,1734226319
167,vernon,50.2581,-119.2691,3.02,85,93,2.24,CA,1734226199
168,hovd,48.0056,91.6419,-18.91,84,100,0.53,MN,1734226321
169,ulladulla,-35.35,150.4667,23.65,75,37,4.37,AU,1734226322
170,vila velha,-20.3297,-40.2925,25.97,87,40,3.6,BR,1734225918
171,arrifes,37.7667,-25.7,17.18,72,75,9.26,PT,1734226325
172,broome,42.2506,-75.833,-5.0,78,59,1.09,US,1734226326
173,tidjikja,18.5564,-11.4271,25.49,17,100,8.79,MR,1734226327
174,jamestown,42.097,-79.2353,-3.2,63,0,4.12,US,1734226075
175,vilyuchinsk,52.9306,158.4028,-4.85,78,9,4.56,RU,1734226331
176,tual,-5.6667,132.75,26.64,87,100,7.1,ID,1734226333
177,naze,28.3667,129.4833,12.51,63,99,6.31,JP,1734226334
178,el tarf,36.7672,8.3138,10.51,94,32,1.95,DZ,1734226334
179,huarmey,-10.0681,-78.1522,19.76,85,74,3.65,PE,1734226336
180,chui,-33.6971,-53.4616,17.65,92,100,8.45,UY,1734226337
181,ritchie,-29.038,24.6028,19.99,18,39,2.53,ZA,1734226338
182,kargasok,59.0556,80.8572,-6.35,94,100,5.97,RU,1734226339
183,susuman,62.7833,148.1667,-22.57,98,100,1.56,RU,1734226340
184,abepura,-2.6333,140.5833,30.45,70,20,1.03,ID,1734226342
185,sandnessjoen,66.0217,12.6316,-0.32,74,100,9.4,NO,1734226343
186,kapuskasing,49.4169,-82.4331,-8.95,86,100,5.66,CA,1734226344
187,guacimo,10.2104,-83.6807,21.89,95,3,1.32,CR,1734226345
188,rivne,50.6231,26.2274,0.6,94,100,6.36,UA,1734226346
189,pahrump,36.2083,-115.9839,14.17,26,41,7.15,US,1734226277
190,puerto ayora,-0.7393,-90.3518,23.08,96,68,1.79,EC,1734226349
191,polyarnyy,69.1989,33.4478,-10.34,100,100,3.72,RU,1734226350
192,la mira,18.035,-102.3266,24.63,87,100,0.59,MX,1734226351
193,margaret river,-33.95,115.0667,18.17,61,51,7.33,AU,1734226352
194,mar del plata,-38.0023,-57.5575,14.49,89,75,3.09,AR,1734225780
195,keflavik,64.0049,-22.5624,1.24,86,75,11.32,IS,1734226354
196,severo-yeniseyskiy,60.3725,93.0408,-14.59,88,97,2.19,RU,1734226355
197,nichinan,31.6,131.3667,9.43,48,4,3.09,JP,1734226356
198,ibotirama,-12.1853,-43.2206,26.55,45,100,1.0,BR,1734226357
199,ulanhot,46.0833,122.0833,-9.21,54,3,5.88,CN,1734226359
200,jiutai,44.1525,125.8328,-8.81,72,6,3.96,CN,1734226360
201,arteche,12.2645,125.4048,27.05,89,100,4.68,PH,1734226361
202,makariv,50.4641,29.8113,-2.63,91,100,5.0,UA,1734226362
203,kavaratti,10.5669,72.642,27.45,84,62,5.57,IN,1734226363
204,monterrey,25.6667,-100.3167,21.98,81,0,2.08,MX,1734225893
205,margate,51.3813,1.3862,4.37,85,42,6.49,GB,1734226207
206,pipar,26.3856,73.5378,11.19,16,2,3.9,IN,1734226367
207,daru,-9.0763,143.2092,26.2,85,100,7.04,PG,1734226368
208,dunedin,-45.8742,170.5036,16.56,76,100,2.68,NZ,1734226369
209,ishigaki,24.3448,124.1572,19.07,63,75,6.69,JP,1734226370
210,balkanabat,39.5108,54.3671,-0.91,65,36,1.53,TM,1734226371
211,bamboo flat,11.7,92.7167,26.05,94,75,3.09,IN,1734226372
212,pandan,14.0453,124.1694,26.8,85,100,7.9,PH,1734226374
213,atar,20.5169,-13.0499,25.82,16,100,5.16,MR,1734226375
214,hakodate,41.7758,140.7367,0.17,80,75,1.54,JP,1734226376
215,tiksi,71.6872,128.8694,-17.61,96,100,5.11,RU,1734226377
216,posto fiscal rolim de moura,-13.0833,-62.2667,23.95,92,100,0.61,BR,1734226378
217,kodiak,57.79,-152.4072,-2.27,86,0,2.57,US,1734226379
218,namibe,-15.1961,12.1522,22.32,76,5,3.23,AO,1734226380
219,ambasa,23.9172,91.8472,14.37,64,5,0.86,IN,1734226382
220,kangding,30.0513,101.9603,7.71,28,1,3.9,CN,1734226383
221,anadyr,64.75,177.4833,-5.72,93,75,2.0,RU,1734226384
222,malindi,-3.2175,40.1191,25.91,84,45,4.29,KE,1734226385
223,nyurba,63.2842,118.3319,-21.82,95,99,2.65,RU,1734226386
224,yurgamysh,55.3714,64.4656,-14.27,90,87,4.56,RU,1734226387
225,castillos,-34.1667,-53.8333,17.28,95,100,6.86,UY,1734226389
226,zelenogorskiy,55.0333,87.0,-11.56,94,93,1.18,RU,1734226390
227,nuku'alofa,-21.1333,-175.2,30.19,70,20,4.63,TO,1734226391
228,hasaki,35.7333,140.8333,11.0,40,4,7.75,JP,1734226392
229,manvel,29.4627,-95.358,22.98,91,40,2.06,US,1734226393
230,belmonte,-15.8631,-38.8828,25.04,87,100,3.5,BR,1734226394
231,aitape,-3.1374,142.3475,26.23,89,100,1.85,PG,1734226395
232,nar'yan-mar,67.6713,53.087,-17.71,91,100,2.01,RU,1734226396
233,mahina,-17.5065,-149.489,28.87,74,40,7.2,PF,1734226398
234,gummi,12.1436,5.1081,18.98,16,83,4.26,NG,1734226399
235,torrevieja,37.9787,-0.6822,12.36,55,97,1.34,ES,1734226400
236,coquimbo,-29.9533,-71.3436,14.85,85,100,1.54,CL,1734226251
237,iskateley,67.6803,53.1512,-17.37,91,100,2.0,RU,1734226402
238,beledweyne,4.7358,45.2036,23.1,70,6,5.83,SO,1734226403
239,dongcun,36.7767,121.1597,2.53,48,0,5.36,CN,1734226404
240,saipan,15.1355,145.701,30.39,82,20,7.2,MP,1734226405
241,san pedro buenavista,16.0833,-93.1167,16.55,98,8,0.88,MX,1734226408
242,port lincoln,-34.7333,135.8667,25.77,55,99,3.61,AU,1734226409
243,callao,-12.0667,-77.15,21.51,83,0,4.63,PE,1734226327
244,queenstown,-31.8976,26.8753,10.17,86,0,1.74,ZA,1734226411
245,jaciara,-15.9653,-54.9683,22.01,97,95,1.84,BR,1734226412
246,lazaro cardenas,17.9583,-102.2,25.69,83,100,0.64,MX,1734226413
247,humaita,-7.5061,-63.0208,24.8,80,34,1.26,BR,1734226414
248,auki,-8.7676,160.7034,28.78,79,68,2.02,SB,1734226416
249,taoudenni,22.6783,-3.9836,19.66,14,0,5.25,ML,1734226417
250,maragogi,-9.0122,-35.2225,24.96,80,100,2.9,BR,1734226160
251,onega,63.9061,38.1404,-16.33,98,91,2.04,RU,1734226419
252,san julian,21.0167,-102.1667,17.87,23,91,0.78,MX,1734226420
253,cuenca,-2.8833,-78.9833,14.07,88,100,3.09,EC,1734226200
254,phalodi,27.1333,72.3667,11.52,16,0,3.16,IN,1734226423
255,la toma,-33.0526,-65.6238,20.21,39,0,3.29,AR,1734226425
256,puerto baquerizo moreno,-0.9,-89.6,22.55,88,75,6.17,EC,1734226208
257,tazovsky,67.4667,78.7,-10.97,92,100,5.88,RU,1734226427
258,stanley,54.868,-1.6985,9.18,90,40,9.26,GB,1734226428
259,meadow lake,34.8014,-106.5436,7.6,37,100,1.67,US,1734226429
260,guardo,42.7897,-4.8482,-0.7,88,12,2.28,ES,1734226430
261,vilyuysk,63.7553,121.6247,-20.36,95,100,3.17,RU,1734226431
262,mata-utu,-13.2816,-176.1745,28.04,76,50,7.01,WF,1734226432
263,chipinge,-20.1883,32.6236,18.67,91,100,2.12,ZW,1734226434
264,nay pyi taw,19.745,96.1297,21.91,72,91,3.08,MM,1734226435
265,ancud,-41.8697,-73.8203,11.42,87,0,0.9,CL,1734226397
266,guanica,17.9716,-66.908,26.32,76,100,3.92,PR,1734226437
267,nantucket,41.2835,-70.0995,0.08,64,0,2.57,US,1734226391
268,oodweyne,9.4092,45.064,15.49,36,1,2.8,SO,1734226439
269,roccella ionica,38.322,16.4009,14.43,76,100,7.12,IT,1734226440
270,kondapalle,16.6167,80.5333,18.47,77,79,1.33,IN,1734226442
271,zemio,5.0314,25.1361,22.24,42,70,1.75,CF,1734226443
272,lautaro,-38.5167,-72.45,9.68,85,0,1.17,CL,1734226444
273,lamu,-2.2717,40.902,26.19,81,41,6.46,KE,1734226445
274,ta`u,-14.2336,-169.5144,27.1,77,25,4.51,AS,1734226446
275,hotan,37.0997,79.9269,-9.07,80,7,1.95,CN,1734226447
276,st. john's,47.5649,-52.7093,-0.57,69,40,7.72,CA,1734226335
277,igarka,67.4667,86.5833,-10.73,93,100,7.06,RU,1734226450
278,la rinconada,37.4873,-5.9826,10.74,79,0,3.09,ES,1734226451
279,magadan,59.5667,150.8,-13.35,84,100,6.24,RU,1734226452
280,lucenec,48.3325,19.6671,0.06,87,78,4.03,SK,1734226453
281,sicuani,-14.2694,-71.2261,8.73,87,100,1.18,PE,1734226454
282,tralee,52.2704,-9.7026,10.68,98,100,3.08,IE,1734226455
283,chandler,33.3062,-111.8412,17.31,33,0,3.09,US,1734226236
284,waingapu,-9.6567,120.2641,29.9,68,100,3.86,ID,1734226458
285,namtsy,62.7161,129.6658,-29.64,93,83,3.79,RU,1734226459
286,udachny,66.4167,112.4,-34.89,100,45,1.34,RU,1734226461
287,kayes,14.0,-11.0,26.55,20,9,3.14,ML,1734226462
288,nova vicosa,-17.8919,-39.3719,24.81,87,100,4.62,BR,1734226463
289,mosfellsbaer,64.1667,-21.7,1.73,84,100,8.23,IS,1734226464
290,altay,47.8667,88.1167,-9.36,62,100,2.05,CN,1734226465
291,saint-philippe,-21.3585,55.7679,23.98,77,24,2.7,RE,1734226467
292,portland,45.5234,-122.6762,8.67,88,42,1.79,US,1734226179
293,remire-montjoly,4.9167,-52.2667,25.02,94,20,1.03,GF,1734226469
294,buka,40.8108,69.1986,4.77,70,100,5.04,UZ,1734226470
295,durango,24.8333,-104.8333,15.57,34,0,2.31,MX,1734226174
296,vadso,70.0744,29.7487,-11.91,79,100,6.17,NO,1734226472
297,tanumah,27.1,44.1333,7.63,33,0,4.25,SA,1734226473
298,karliova,39.2983,41.0142,-19.83,79,25,1.37,TR,1734226474
299,atafu village,-8.5421,-172.5159,28.23,75,41,6.66,TK,1734226476
300,ghadamis,30.1337,9.5007,14.07,18,4,3.0,LY,1734226477
301,tazacorte,28.629,-17.9293,20.64,79,100,2.06,ES,1734226479
302,lienz,46.8289,12.769,-1.74,93,97,2.64,AT,1734226307
303,kralendijk,12.15,-68.2667,24.99,88,20,2.06,BQ,1734226481
304,mount isa,-20.7333,139.5,36.87,32,53,2.06,AU,1734226482
305,khandyga,62.6667,135.6,-31.94,96,100,0.66,RU,1734226483
306,simanggang,1.2472,111.4528,27.99,88,20,0.0,MY,1734226485
307,oltinko'l,40.8011,72.1634,1.46,71,99,1.81,UZ,1734226486
308,halifax,44.6453,-63.5724,-4.75,76,0,0.45,CA,1734226167
309,negara,-8.3151,114.6025,27.35,75,100,0.56,ID,1734226489
310,matera,40.5,16.4167,8.74,79,100,1.78,IT,1734226490
311,ishim,56.1128,69.4902,-7.14,91,100,6.53,RU,1734226491
312,harstad,68.799,16.5293,-1.58,79,99,7.6,NO,1734226493
313,guerrero negro,27.9769,-114.0611,15.2,83,66,4.78,MX,1734226494
314,huai khot,15.2909,99.6166,21.83,64,96,2.59,TH,1734226495
315,kintinku,-5.8833,35.2333,20.87,89,50,0.49,TZ,1734226496
316,howrah,22.5892,88.3103,14.0,62,7,2.06,IN,1734226497
317,kamaishi,39.2667,141.8833,2.49,76,100,4.16,JP,1734226498
318,tamandare,-8.7597,-35.1047,25.05,82,100,2.76,BR,1734226499
319,noumea,-22.2763,166.4572,33.33,99,77,3.46,NC,1734226500
320,phan thiet,10.9333,108.1,24.19,91,100,6.67,VN,1734226501
321,arcachon,44.5875,-1.0519,5.03,93,75,1.03,FR,1734226503
322,fort bragg,35.139,-79.006,6.91,79,0,3.6,US,1734226504
323,isangel,-19.55,169.2667,31.06,70,75,3.6,VU,1734226505
324,vorgashor,67.5833,63.95,-18.4,97,95,2.86,RU,1734226506
325,rocky mountain house,52.3668,-114.9188,-4.94,80,36,0.51,CA,1734226507
326,nemuro,43.3236,145.575,-1.08,60,100,5.54,JP,1734226508
327,inhambane,-23.865,35.3833,24.74,88,82,4.53,MZ,1734226509
328,manta,-0.95,-80.7333,24.88,78,75,5.66,EC,1734226510
329,plastun,44.7561,136.2939,-8.03,49,100,4.61,RU,1734226512
330,selfoss,63.9331,-20.9971,2.25,67,93,9.52,IS,1734226513
331,port saint john's,-31.6229,29.5448,20.4,83,2,5.94,ZA,1734226514
332,nicoya,10.1483,-85.452,23.51,79,1,4.01,CR,1734226515
333,kuta,-8.7233,115.1723,28.97,79,40,3.6,ID,1734226516
334,lithgow,-33.4833,150.15,31.53,21,0,3.7,AU,1734226517
335,mzimba,-11.9,33.6,19.54,75,41,1.63,MW,1734226519
336,jinchang,38.4953,102.1739,-6.2,46,0,2.7,CN,1734226520
337,venta de banos,41.9371,-4.4645,-0.95,89,1,0.88,ES,1734226521
338,vallenar,-28.5708,-70.7581,18.96,62,0,1.19,CL,1734226522
339,corralillo,22.9819,-80.5856,24.1,73,0,8.39,CU,1734226523
340,touros,-5.1989,-35.4608,25.67,82,36,4.01,BR,1734226524
341,muli,2.9167,73.5667,27.42,80,83,4.99,MV,1734226525
342,grand falls-windsor,48.9332,-55.6649,-2.5,72,26,0.89,CA,1734226526
343,dukhan,25.4297,50.7858,17.76,54,0,10.46,QA,1734226528
344,kogalym,62.2654,74.4791,-9.07,95,100,6.35,RU,1734226529
345,mandeville,18.0417,-77.5071,17.78,93,6,2.8,JM,1734226530
346,mount gambier,-37.8333,140.7667,31.43,25,0,0.89,AU,1734226531
347,mugia,43.1041,-9.2179,10.24,76,0,4.32,ES,1734226532
348,fort st. john,56.2499,-120.8529,-16.06,78,100,6.69,CA,1734226533
349,pierre,44.3683,-100.351,-2.49,86,100,5.81,US,1734226534
350,cockburn town,21.4612,-71.1419,26.26,83,3,10.92,TC,1734226535
351,eraan,9.0629,117.7016,29.22,71,100,4.95,PH,1734226537
352,mihalgazi,40.0262,30.5771,1.78,67,20,4.53,TR,1734226538
353,pervomayskoye,43.919,46.7102,-5.43,69,0,1.85,RU,1734226539
354,makary,12.5717,14.4666,21.01,37,11,6.61,CM,1734226540
355,xai-xai,-25.0519,33.6442,23.79,86,100,2.74,MZ,1734226541
356,pisco,-13.7,-76.2167,19.03,82,0,6.69,PE,1734226543
357,kaiapoi,-43.3783,172.6401,18.37,77,100,6.69,NZ,1734226544
358,dublin,37.7021,-121.9358,11.33,84,100,1.79,US,1734226545
359,priozersk,61.0393,30.1291,-1.06,89,100,8.1,RU,1734226548
360,mawu,34.4307,104.9176,-6.34,47,0,1.75,CN,1734226549
361,aripuana,-9.1667,-60.6333,22.92,99,100,0.71,BR,1734226551
362,segezha,63.7415,34.3222,-8.22,82,27,5.85,RU,1734226552
363,mhamid,29.82,-5.72,15.26,31,100,3.21,MA,1734226553
364,puerto deseado,-47.7503,-65.8938,14.33,63,21,6.37,AR,1734226280
365,mount pearl,47.5166,-52.7813,-1.03,73,40,7.72,CA,1734226555
366,gadzhiyevo,69.2551,33.3362,-11.13,98,100,3.34,RU,1734226556
367,villa gesell,-37.2639,-56.973,15.62,87,0,7.4,AR,1734226497
368,ustyuzhna,58.8394,36.4321,-4.18,94,100,4.25,RU,1734226559
369,baikonur,45.6167,63.3167,-3.23,68,100,5.79,KZ,1734226560
370,salinas,36.6777,-121.6555,12.82,85,75,2.57,US,1734226482
371,bayramaly,37.6185,62.1671,-3.14,91,100,6.97,TM,1734226562
372,kerikeri,-35.2268,173.9474,22.7,74,100,2.71,NZ,1734226563
373,sitangkai,4.6628,119.3928,28.27,76,53,6.49,PH,1734226565
374,argo,37.6333,22.7333,10.9,84,100,0.87,GR,1734226567
375,salinopolis,-0.6136,-47.3561,26.99,77,100,5.47,BR,1734226568
376,navlya,52.8281,34.4989,-4.89,82,100,5.17,RU,1734226569
377,khanty-mansiysk,61.0042,69.0019,-6.94,86,40,2.0,RU,1734226571
378,greymouth,-42.4667,171.2,16.64,96,100,3.74,NZ,1734226572
379,tsiombe,-25.3,45.4833,24.13,90,100,4.95,MG,1734226296
380,butembo,0.15,29.2833,14.63,82,98,1.28,CD,1734226575
381,glens falls north,43.3351,-73.6825,-7.4,84,13,1.36,US,1734226577
382,likiep,9.8251,169.3107,27.8,80,12,8.54,MH,1734226578
383,irinjalakuda,10.3333,76.2333,20.94,85,41,2.14,IN,1734226580
384,canmore,51.0834,-115.3521,2.06,86,80,1.54,CA,1734226581
385,nove mesto nad metuji,50.3446,16.1515,0.62,98,100,5.62,CZ,1734226584
386,ilomantsi,62.6716,30.9328,-8.58,80,100,6.53,FI,1734226585
387,vila franca do campo,37.7167,-25.4333,18.27,99,90,9.63,PT,1734226586
388,crane,31.3974,-102.3501,15.42,19,0,3.13,US,1734226506
389,novo aripuana,-5.1206,-60.3797,24.38,87,100,1.43,BR,1734226588
390,juruti,-2.1522,-56.0922,25.47,85,100,1.35,BR,1734226589
391,le port,-20.9373,55.2919,21.98,90,42,1.54,RE,1734226590
392,la jolla,32.8473,-117.2742,15.01,81,0,5.66,US,1734226592
393,minas de marcona,-15.2119,-75.1103,15.71,86,90,5.3,PE,1734226594
394,alice springs,-23.7,133.8833,38.75,7,95,4.12,AU,1734226595
395,sao lourenco do sul,-31.3653,-51.9783,20.53,75,63,6.86,BR,1734226596
396,thamaga,-24.6701,25.5397,20.64,81,99,6.53,BW,1734226597
397,holualoa,19.6228,-155.9522,26.02,81,40,4.12,US,1734226420
398,turan,16.0678,108.2208,19.99,94,100,8.23,VN,1734226600
399,ntoum,0.3833,9.7833,24.23,95,99,0.66,GA,1734226602
400,madarounfa,13.3087,7.156,17.03,17,100,4.9,NE,1734226603
401,mil'kovo,55.6078,37.7956,-4.25,61,100,6.16,RU,1734226604
402,cumberland,35.0502,-78.8664,7.28,78,0,4.12,US,1734226605
403,shimoda,34.6667,138.95,9.33,61,4,11.47,JP,1734226606
404,san antonio de pale,-1.4014,5.6325,26.12,85,100,3.03,GQ,1734226607
405,kismayo,-0.3582,42.5454,25.63,81,31,7.7,SO,1734226609
406,ostrow mazowiecka,52.8024,21.8951,0.35,93,100,6.78,PL,1734226610
407,nadym,65.5333,72.5167,-8.07,95,100,5.34,RU,1734226611
408,las toscas,-28.3529,-59.258,20.46,61,2,1.73,AR,1734226612
409,penhalonga,-18.8911,32.6978,16.82,96,89,2.07,ZW,1734226613
410,peace river,56.2501,-117.286,-9.83,85,100,5.14,CA,1734226614
411,deming,32.2687,-107.7586,11.94,19,0,2.06,US,1734226615
412,horta,38.5333,-28.6333,16.12,73,60,7.15,PT,1734226618
413,altagracia de orituco,9.8601,-66.3814,22.42,84,79,2.18,VE,1734226619
414,al qusiyah,27.4402,30.8184,11.87,66,0,3.49,EG,1734226620
415,al muwayh,22.4333,41.7583,14.9,39,94,7.69,SA,1734226621
416,richards bay,-28.783,32.0377,21.56,80,100,5.09,ZA,1734226622
417,bandarbeyla,9.4942,50.8122,24.1,76,86,7.92,SO,1734226623
418,kapa'a,22.0752,-159.319,26.18,75,40,6.17,US,1734226494
419,christchurch,-43.5333,172.6333,18.28,72,100,6.69,NZ,1734226257
420,ariano irpino-martiri,41.1489,15.0833,5.86,93,34,8.75,IT,1734226627
421,kargil,34.5667,76.1,-15.57,76,100,1.56,IN,1734226628
422,san ignacio de velasco,-16.3667,-60.95,21.86,80,17,1.86,BO,1734226629
423,lubao,14.9167,120.55,27.84,69,69,4.53,PH,1734226630
424,rongelap,11.1635,166.8941,27.74,79,0,8.38,MH,1734226631
425,nogales,31.3086,-110.9422,15.76,12,0,0.0,MX,1734226634
426,syktyvkar,61.6764,50.8099,-15.15,92,40,3.0,RU,1734226619
427,walvis bay,-22.9575,14.5053,15.06,90,56,4.12,NA,1734226636
428,dawesville,30.9224,-84.0091,17.42,77,40,4.63,US,1734226638
429,yola,9.2,12.4833,20.27,23,9,0.61,NG,1734226639
430,carnarvon,-24.8667,113.6333,26.05,62,2,6.86,AU,1734226641
431,port augusta,-32.5,137.7667,35.46,16,63,3.61,AU,1734226643
432,hammerfest,70.6634,23.6821,-7.75,62,41,5.66,NO,1734226644
433,langfang,39.5097,116.6947,2.0,23,0,2.96,CN,1734226645
434,goulburn,-34.75,149.7167,30.99,30,0,1.34,AU,1734226646
435,yaren,-0.5472,166.916,28.13,77,73,2.44,NR,1734226647
436,prince george,53.9166,-122.753,1.46,99,100,4.63,CA,1734226550
437,deyang,31.1302,104.382,6.11,59,0,0.63,CN,1734226650
438,olyokminsk,60.3736,120.4264,-20.02,96,100,3.33,RU,1734226651
439,goure,13.9835,10.2704,16.1,20,80,5.63,NE,1734226652
440,usinsk,65.9939,57.5281,-13.92,93,100,6.32,RU,1734226653
441,baidoa,3.1138,43.6498,20.48,86,5,4.75,SO,1734226654
442,ciudad guayana,8.3533,-62.6528,23.08,95,26,2.55,VE,1734226655
443,cedeira,43.6797,-8.0209,8.07,82,3,2.28,ES,1734226656
444,cannonvale,-20.2833,148.7,28.66,65,9,5.73,AU,1734226657
445,massaguet,12.4755,15.4365,20.27,19,12,6.33,TD,1734226659
446,umm al quwain city,25.5647,55.5552,17.18,51,52,4.53,AE,1734226660
447,trevelin,-43.0858,-71.4639,13.59,84,4,1.92,AR,1734226661
448,aflao,6.116,1.1914,27.07,89,20,2.06,TG,1734226662
449,nikol'sk,53.7189,46.0712,-13.28,98,100,3.3,RU,1734226663
450,acapulco de juarez,16.8634,-99.8901,26.9,83,40,0.0,MX,1734226384
451,manay,7.215,126.5397,29.06,67,63,5.44,PH,1734226665
452,cruzeiro do sul,-29.5128,-51.9853,22.5,96,1,1.76,BR,1734226668
453,devils lake,48.1128,-98.8651,-5.01,91,100,6.17,US,1734226480
454,mezzouna,34.5776,9.8419,12.94,72,0,2.39,TN,1734226670
455,kananga,-5.8958,22.4178,20.8,94,100,0.82,CD,1734226671
456,gambiran satu,-8.3939,114.1464,28.5,83,98,0.42,ID,1734226672
457,lauro de freitas,-12.8944,-38.3272,26.01,78,75,3.09,BR,1734226412
458,tolanaro,-25.0319,46.9987,24.04,88,0,3.6,MG,1734226674
459,smithers,54.7804,-127.1743,-1.82,93,100,0.0,CA,1734226676
460,angaur state,6.906,134.13,26.88,83,99,6.4,PW,1734226677
461,gasa,31.5,34.4667,13.29,62,0,3.09,PS,1734226678
462,al kut,32.5147,45.819,7.17,24,0,4.99,IQ,1734226679
463,san jose iturbide,21.0,-100.3833,13.6,70,64,3.06,MX,1734226680
464,weno,7.4515,151.8468,24.97,88,100,4.12,FM,1734226681
465,narvik,68.4384,17.4272,-5.11,76,80,4.88,NO,1734226682
466,chaman,30.9236,66.4512,8.94,20,100,1.56,PK,1734226683
467,aykhal,66.0,111.5,-27.95,100,6,1.63,RU,1734226685
468,beloyarskiy,63.7119,66.6722,-16.91,99,100,1.14,RU,1734226686
469,shalqar,47.8333,59.6,-7.37,71,92,6.52,KZ,1734226687
470,bardai,11.65,7.2333,14.92,25,9,4.73,NG,1734226688
471,amasra,41.7463,32.3863,4.88,60,100,3.87,TR,1734226689
472,khorixas,-20.3667,14.9667,23.63,35,30,1.06,NA,1734226691
473,tucurui,-3.7661,-49.6725,24.33,88,100,1.42,BR,1734226692
474,hirara,24.8,125.2833,19.15,59,40,9.77,JP,1734226693
475,mendarda,21.3167,70.4333,15.39,30,4,3.62,IN,1734226694
476,noshiro,40.2039,140.0242,0.46,96,100,8.15,JP,1734226695
477,kirakira,-10.4544,161.9205,29.61,78,72,1.46,SB,1734226696
478,fiambala,-27.6871,-67.6149,22.02,33,10,3.6,AR,1734226698
479,laojunmiao,39.8333,97.7333,-8.18,44,0,4.76,CN,1734226699
480,novyy urengoy,66.0833,76.6333,-10.81,94,100,6.17,RU,1734226473
481,lethem,3.3803,-59.7968,26.67,72,63,5.03,GY,1734226701
482,gorgan,36.8387,54.4348,0.98,93,100,3.09,IR,1734226702
483,revda,56.801,59.9303,-13.01,86,100,5.68,RU,1734226703
484,pekalongan,-6.8886,109.6753,27.3,82,100,1.5,ID,1734226704
485,undurkhaan,47.3194,110.6556,-9.47,70,89,3.12,MN,1734226705
486,conception bay south,47.4999,-52.9981,-0.7,75,24,6.77,CA,1734226707
487,terrace,54.5163,-128.6035,0.95,93,75,5.14,CA,1734226708
488,pundong,-7.9522,110.3486,25.61,86,100,1.07,ID,1734226710
489,razole,16.4833,81.8333,20.19,73,100,1.81,IN,1734226711
490,huai'an,33.5886,119.0192,4.63,29,0,4.08,CN,1734226713
491,meadow lakes,61.6247,-149.6011,-2.74,95,100,0.0,US,1734226715
492,marcali,46.585,17.412,-0.07,96,99,0.94,HU,1734226716
493,carauari,-4.8828,-66.8958,23.89,96,100,0.75,BR,1734226717
494,lerwick,60.1545,-1.1494,9.34,95,100,9.84,GB,1734226718
495,sabang,5.8933,95.3214,27.3,78,92,2.21,ID,1734226719
496,kargopol',61.5071,38.9456,-12.69,94,100,2.89,RU,1734226720
497,glace bay,46.1969,-59.957,-1.59,79,85,1.79,CA,1734226721
498,caucasia,7.9865,-75.1935,24.11,91,11,2.48,CO,1734226722
499,newman,37.3138,-121.0208,11.7,77,100,0.89,US,1734226724
500,makokou,0.5738,12.8642,22.5,94,100,1.41,GA,1734226725
501,laguna,38.421,-121.4238,12.08,78,75,5.66,US,1734226726
502,yigo village,13.5361,144.8886,29.3,75,75,8.75,GU,1734226728
503,porangatu,-13.4408,-49.1486,22.14,86,99,0.53,BR,1734226729
504,barakani,-12.1356,44.4317,26.84,87,87,6.25,KM,1734226730
505,ad dilam,23.9915,47.1627,10.84,39,1,3.95,SA,1734226732
506,nurota,40.5614,65.6886,-1.67,99,100,3.11,UZ,1734226733
507,reitz,-27.8014,28.4273,13.57,93,49,3.29,ZA,1734226734
508,qamdo,31.1667,97.2333,-4.44,15,0,1.35,CN,1734226736
509,robore,-18.3333,-59.75,20.52,86,12,0.92,BO,1734226738
510,badr hunayn,23.7829,38.7905,20.72,30,0,6.89,SA,1734226739
511,akureyri,65.6835,-18.0878,1.96,51,75,2.57,IS,1734226740
512,turpan,42.9333,89.1667,-7.26,67,23,0.4,CN,1734226741
513,chibougamau,49.9168,-74.3659,-17.21,85,0,2.06,CA,1734226742
514,souillac,-20.5167,57.5167,23.21,83,20,1.54,MU,1734226743
515,guiuan,11.0333,125.7247,27.5,82,50,7.46,PH,1734226744
516,la ronge,55.1001,-105.2842,-10.86,79,100,4.12,CA,1734226745
517,tofol,5.3248,163.0078,28.64,76,21,6.94,FM,1734226747
518,coahuayana de hidalgo,18.7,-103.6583,24.58,94,100,0.89,MX,1734226748
519,ciudad guadalupe victoria,24.4497,-104.1225,15.9,32,0,1.24,MX,1734226749
520,naberera,-4.2,36.9333,19.4,83,70,2.08,TZ,1734226750
521,colonia,50.9333,6.95,4.58,89,75,4.12,DE,1734226751
522,ihosy,-22.4,46.1167,20.23,87,88,3.58,MG,1734226752
523,fisterra,42.9049,-9.2629,11.26,69,0,4.48,ES,1734226753
524,boende,-0.2167,20.8667,22.0,88,56,0.56,CD,1734226754
525,konarka,19.9,86.1167,16.58,42,20,5.05,IN,1734226756
526,aktobe,50.2797,57.2072,-11.95,79,100,7.0,KZ,1734226757
527,lorengau,-2.0226,147.2712,29.87,70,76,2.05,PG,1734226758
528,kone,-21.0595,164.8658,33.97,48,92,2.91,NC,1734226759
529,balqash,46.8481,74.995,-3.53,80,100,2.58,KZ,1734226760
530,pachino,36.7186,15.0907,15.33,70,100,7.43,IT,1734226762
531,abeche,13.8292,20.8324,17.87,22,3,5.62,TD,1734226787
532,tagiura,32.8817,13.3506,17.52,72,7,1.96,LY,1734226789
533,pembroke,45.8168,-77.1162,-11.47,97,69,0.95,CA,1734226790
534,nchelenge,-9.3451,28.734,20.77,83,100,1.92,ZM,1734226791
535,visby,57.6409,18.296,3.12,75,40,9.26,SE,1734226792
536,moyale,3.5167,39.0584,20.46,45,10,4.13,KE,1734226793
537,flying fish cove,-10.4217,105.6791,27.82,89,75,2.57,CX,1734226794
538,abancay,-13.6339,-72.8814,12.29,95,100,4.54,PE,1734226796
539,alofi,-19.0595,-169.9187,27.94,74,75,9.26,NU,1734226797
540,les cayes,18.2,-73.75,24.77,84,7,3.66,HT,1734226798
541,san-pedro,4.7485,-6.6363,25.74,85,73,2.1,CI,1734226594
542,san patricio,28.017,-97.5169,22.97,85,100,3.7,US,1734226800
543,valenca do piaui,-6.4075,-41.7456,25.81,47,76,0.52,BR,1734226801
544,barra de santo antonio,-9.4047,-35.5072,24.98,81,21,3.75,BR,1734226802
545,urzhar,47.093,81.6294,-6.88,66,4,2.74,KZ,1734226804
546,hilo,19.7297,-155.09,24.51,85,52,0.45,US,1734226805
547,sur,22.5667,59.5289,20.58,66,0,2.35,OM,1734226806
548,rangkasbitung,-6.3591,106.2494,25.1,92,100,0.77,ID,1734226807
549,al ghayzah,16.2079,52.176,20.99,73,8,2.51,YE,1734226808
550,beira,-19.8436,34.8389,28.05,74,40,3.6,MZ,1734226804
551,el nido,11.1858,119.3956,28.41,82,75,4.95,PH,1734226810
552,saladas,-28.2538,-58.6259,19.62,68,1,2.02,AR,1734226811
553,sarishabari,24.7333,89.8333,17.03,75,0,2.72,BD,1734226812
554,pampa,35.5362,-100.9599,6.02,45,0,3.6,US,1734226814
555,cidreira,-30.1811,-50.2056,20.27,95,45,4.45,BR,1734226815
556,inarajan village,13.2736,144.7484,30.22,81,81,8.77,GU,1734226816
557,monteros,-27.1674,-65.4983,23.22,66,65,1.22,AR,1734226311
558,haiku-pauwela,20.9219,-156.3051,26.79,72,92,12.52,US,1734226818
559,prince rupert,54.3161,-130.3201,3.83,79,20,9.26,CA,1734226819
560,arraial do cabo,-22.9661,-42.0278,23.42,95,100,9.8,BR,1734226721
561,curuzu cuatia,-29.7917,-58.0546,19.64,52,0,4.13,AR,1734226821
562,kotovsk,47.7531,29.532,-0.31,94,100,3.39,UA,1734226823
563,katsuura,35.1333,140.3,11.09,57,3,11.13,JP,1734226824
564,el dorado,38.7666,-120.5177,5.23,98,100,0.89,US,1734226825
565,kenema,7.8767,-11.1875,21.39,96,56,0.49,SL,1734226826
566,thurso,58.5927,-3.5259,10.14,92,100,12.05,GB,1734226827
